event number,district,time received,shift,time dispatched,time arrived,callcode,call code description,call type,priority,unit id,is primary,address,city,latitude,longitude,geo count,geo error
16-000002,E,1/1/16 0:00,1,1/1/16 0:02,1/1/16 0:15,C31.00,BURG ALARM COMMERCIAL PROP; TIME ELAPSED NOT APPLICABLE; INJURY NOT APPLICABLE,PH,4,E501,TRUE,301 16TH ST;  ,JERSEY CITY,40.73345947,-74.04602814,1,S5HPNTSCZA
16-000012,W,1/1/16 0:10,1,1/1/16 0:12,1/1/16 0:23,C29.00,BURG ALARM RESIDENTIAL PROP; TIME ELAPSED NOT APPLICABLE; INJURY NOT APPLICABLE,PH,4,W201,TRUE,107 OAK ST; BA  ,JERSEY CITY,40.71468735,-74.07886505,1,S5HPNTSCZA
16-000018,W,1/1/16 0:15,1,1/1/16 0:16,1/1/01 0:00,E14.00,STREET FIGHT ( NO WEAPONS ); TIME ELAPSED NOT APPLICABLE; INJURY NOT APPLICABLE,PH,3,W401,TRUE,EGE AVE & BERGEN AVE;  ,JERSEY CITY,40.71295929,-74.08164215,2,SX
16-000019,W,1/1/16 0:16,1,1/1/16 0:18,1/1/01 0:00,F12.00,TAMPERING WITH A VEHICLE; TIME ELAPSED NOT APPLICABLE; INJURY NOT APPLICABLE,911,4,W101,TRUE,SUMMIT (SUMMIT AVE) & ASTOR PL;  ,JERSEY CITY,40.71780014,-74.06749725,1,SX
16-000022,W,1/1/16 0:16,1,1/1/16 0:18,1/1/16 0:24,A12.20,ASSAULT NO WEAPON; IN PROGRESS AND/OR ACTOR ON SCENE; INJURY NOT APPLICABLE,911,2,W501,TRUE,LEXINGTON AVE & WEST SIDE AVE;  ,JERSEY CITY,40.71955109,-74.08242035,1,SX
16-000031,S,1/1/16 0:21,1,1/1/16 0:23,1/1/16 0:48,C29.00,BURG ALARM RESIDENTIAL PROP; TIME ELAPSED NOT APPLICABLE; INJURY NOT APPLICABLE,PH,4,S501,TRUE,1991 KENNEDY BLVD; 41  ,JERSEY CITY,40.70762253,-74.08787537,1,S5HPNTSC-A
16-000038,W,1/1/16 0:25,1,1/1/16 0:27,1/1/01 0:00,C18.20,BURGLARY RESIDENTIAL PROP; IN PROGRESS AND/OR ACTOR ON SCENE; INJURY NOT APPLICABLE,911,2,W201,TRUE,150 BELMONT AVE; 304  ,JERSEY CITY,40.72132874,-74.07359314,1,S5HPNTSCZA
16-000040,N,1/1/16 0:25,1,1/1/16 0:26,1/1/16 0:26,C31.00,BURG ALARM COMMERCIAL PROP; TIME ELAPSED NOT APPLICABLE; INJURY NOT APPLICABLE,SI,4,N101,TRUE,624 TONNELE AVE;  ,JERSEY CITY,40.75179672,-74.05802155,1,S5HPNTSCZA
16-000041,W,1/1/16 0:25,1,1/1/16 0:27,1/1/16 0:36,A12.20,ASSAULT NO WEAPON; IN PROGRESS AND/OR ACTOR ON SCENE; INJURY NOT APPLICABLE,911,2,W601,TRUE,79 VIRGINIA AVE;  ,JERSEY CITY,40.71283722,-74.0786438,1,S5HPNTSCZA
16-000043,S,1/1/16 0:28,1,1/1/16 0:29,1/1/16 0:45,E11.00,DISORDERLY CONDUCT; TIME ELAPSED NOT APPLICABLE; INJURY NOT APPLICABLE,PH,7,S201,TRUE,149 WILKINSON AVE; (1 FL),JERSEY CITY,40.70681,-74.08138275,1,S5HPNTSCZA
16-000044,E,1/1/16 0:28,1,1/1/16 0:29,1/1/01 0:00,D21.00,HYDRANT PARKING VIOLATION; TIME ELAPSED NOT APPLICABLE; INJURY NOT APPLICABLE,PH,7,E201,TRUE,305 HALLADAY ST;  ,JERSEY CITY,40.71286011,-74.06220245,1,S5HPNTSCZA
16-000048,S,1/1/16 0:30,1,1/1/16 0:33,1/1/16 0:50,B11.00,TERRORISTIC THREATS; TIME ELAPSED NOT APPLICABLE; INJURY NOT APPLICABLE,911,2,S201,TRUE,30 BERGEN AVE; 1B  ,JERSEY CITY,40.70449066,-74.08882904,1,S5HPNTSCZA
16-000056,W,1/1/16 0:36,1,1/1/16 0:38,1/1/16 0:53,A12.20,ASSAULT NO WEAPON; IN PROGRESS AND/OR ACTOR ON SCENE; INJURY NOT APPLICABLE,911,2,W401,TRUE,262 CLENDENNY AVE; 2 (2 FL),JERSEY CITY,40.72147369,-74.08829498,1,S5HPNTSCZA
16-000060,N,1/1/16 0:39,1,1/1/16 0:41,1/1/01 0:00,D23.00,DRIVEWAY PARKING VIOLATION; TIME ELAPSED NOT APPLICABLE; INJURY NOT APPLICABLE,PH,7,N501,TRUE,48 RAVINE AVE;  ,JERSEY CITY,40.74062729,-74.04947662,1,S5HPNTSCZA
16-000065,W,1/1/16 0:42,1,1/1/16 0:43,1/1/16 0:55,D23.00,DRIVEWAY PARKING VIOLATION; TIME ELAPSED NOT APPLICABLE; INJURY NOT APPLICABLE,PH,7,W101,TRUE,72 WALLIS AVE;  ,JERSEY CITY,40.73600769,-74.07506561,1,S5HPNTSCZA
16-000091,S,1/1/16 0:54,1,1/1/16 0:56,1/1/16 0:59,F18.00,GUNSHOTS FIRED HEARD ( NO WITNESS / VICTIM ); TIME ELAPSED NOT APPLICABLE; INJURY NOT APPLICABLE,PH,2,S101,FALSE,164 STERLING AVE;  ,JERSEY CITY,40.70732498,-74.09201813,1,S5HPNTSCZA
16-000091,S,1/1/16 0:54,1,1/1/16 0:56,1/1/16 0:59,F18.00,GUNSHOTS FIRED HEARD ( NO WITNESS / VICTIM ); TIME ELAPSED NOT APPLICABLE; INJURY NOT APPLICABLE,PH,2,SPSGTM,FALSE,164 STERLING AVE;  ,JERSEY CITY,40.70732498,-74.09201813,1,S5HPNTSCZA
16-000091,S,1/1/16 0:54,1,1/1/16 0:56,1/1/16 0:59,F18.00,GUNSHOTS FIRED HEARD ( NO WITNESS / VICTIM ); TIME ELAPSED NOT APPLICABLE; INJURY NOT APPLICABLE,PH,2,S501,TRUE,164 STERLING AVE;  ,JERSEY CITY,40.70732498,-74.09201813,1,S5HPNTSCZA
16-000091,S,1/1/16 0:54,1,1/1/16 0:56,1/1/16 0:59,F18.00,GUNSHOTS FIRED HEARD ( NO WITNESS / VICTIM ); TIME ELAPSED NOT APPLICABLE; INJURY NOT APPLICABLE,PH,2,CCF3,FALSE,164 STERLING AVE;  ,JERSEY CITY,40.70732498,-74.09201813,1,S5HPNTSCZA
16-000093,S,1/1/16 0:56,1,1/1/16 0:57,1/1/16 1:03,E13.00,LOUD MUSIC; TIME ELAPSED NOT APPLICABLE; INJURY NOT APPLICABLE,PH,7,S101,TRUE,260 DWIGHT ST;  ,JERSEY CITY,40.7061348,-74.0878067,1,S5HPNTSCZA
16-000094,N,1/1/16 0:56,1,1/1/16 0:57,1/1/16 0:56,E14.00,STREET FIGHT ( NO WEAPONS ); TIME ELAPSED NOT APPLICABLE; INJURY NOT APPLICABLE,SI,3,N601,FALSE,HUTTON ST & CENTRAL AVE;  ,JERSEY CITY,40.74468994,-74.05027771,1,SX
16-000094,N,1/1/16 0:56,1,1/1/16 0:57,1/1/16 0:56,E14.00,STREET FIGHT ( NO WEAPONS ); TIME ELAPSED NOT APPLICABLE; INJURY NOT APPLICABLE,SI,3,N501,FALSE,HUTTON ST & CENTRAL AVE;  ,JERSEY CITY,40.74468994,-74.05027771,1,SX
16-000094,N,1/1/16 0:56,1,1/1/16 0:57,1/1/16 0:56,E14.00,STREET FIGHT ( NO WEAPONS ); TIME ELAPSED NOT APPLICABLE; INJURY NOT APPLICABLE,SI,3,N401,FALSE,HUTTON ST & CENTRAL AVE;  ,JERSEY CITY,40.74468994,-74.05027771,1,SX
16-000094,N,1/1/16 0:56,1,1/1/16 0:57,1/1/16 0:56,E14.00,STREET FIGHT ( NO WEAPONS ); TIME ELAPSED NOT APPLICABLE; INJURY NOT APPLICABLE,SI,3,N301,TRUE,HUTTON ST & CENTRAL AVE;  ,JERSEY CITY,40.74468994,-74.05027771,1,SX
16-000094,N,1/1/16 0:56,1,1/1/16 0:57,1/1/16 0:56,E14.00,STREET FIGHT ( NO WEAPONS ); TIME ELAPSED NOT APPLICABLE; INJURY NOT APPLICABLE,SI,3,N201,FALSE,HUTTON ST & CENTRAL AVE;  ,JERSEY CITY,40.74468994,-74.05027771,1,SX
16-000094,N,1/1/16 0:56,1,1/1/16 0:57,1/1/16 0:56,E14.00,STREET FIGHT ( NO WEAPONS ); TIME ELAPSED NOT APPLICABLE; INJURY NOT APPLICABLE,SI,3,N101,FALSE,HUTTON ST & CENTRAL AVE;  ,JERSEY CITY,40.74468994,-74.05027771,1,SX
16-000101,S,1/1/16 1:00,1,1/1/16 1:01,1/1/16 1:06,E17.00,FIREWORKS; TIME ELAPSED NOT APPLICABLE; INJURY NOT APPLICABLE,PH,7,S201,TRUE,41 PEARSALL AVE;  ,JERSEY CITY,40.69139099,-74.09136963,1,S5HPNTSCZA
16-000102,N,1/1/16 1:01,1,1/1/16 1:03,1/1/16 1:18,D21.00,HYDRANT PARKING VIOLATION; TIME ELAPSED NOT APPLICABLE; INJURY NOT APPLICABLE,PH,7,N101,TRUE,223 LIBERTY AVE;  ,JERSEY CITY,40.74433517,-74.06087494,1,S5HPNTSCZA
16-000103,S,1/1/16 1:01,1,1/1/16 1:04,1/1/16 1:21,G13.00,USE/SALE OF DRUGS; TIME ELAPSED NOT APPLICABLE; INJURY NOT APPLICABLE,PH,6,S501,TRUE,327 DANFORTH AVE; (1 FL),JERSEY CITY,40.70226669,-74.09637451,1,S5HPNTSCZA
16-000105,N,1/1/16 1:03,1,1/1/16 1:05,1/1/16 1:17,E13.00,LOUD MUSIC; TIME ELAPSED NOT APPLICABLE; INJURY NOT APPLICABLE,PH,7,N301,TRUE,1007 SUMMIT (SUMMIT AVE);  ,JERSEY CITY,40.74884033,-74.05056,1,S5HPNTSCZA
16-000107,E,1/1/16 1:04,1,1/1/16 1:05,1/1/16 1:20,C22.00,THEFT PROP FROM VEHICLE; TIME ELAPSED NOT APPLICABLE; INJURY NOT APPLICABLE,911,6,E301,TRUE,92 SUMMIT AVE;  ,JERSEY CITY,40.71820831,-74.06745911,1,S5HPNTSCZA
16-000108,W,1/1/16 1:05,1,1/1/16 1:06,1/1/01 0:00,E14.00,STREET FIGHT ( NO WEAPONS ); TIME ELAPSED NOT APPLICABLE; INJURY NOT APPLICABLE,PH,3,W201,TRUE,62 VIRGINIA AVE;  ,JERSEY CITY,40.7127533,-74.07814026,1,S5HPNTSCZA
16-000109,S,1/1/16 1:06,1,1/1/16 1:08,1/1/16 1:13,D11.00,MOTOR VEHICLE ACCIDENT; TIME ELAPSED NOT APPLICABLE; INJURY NOT APPLICABLE,911,3,S301,TRUE,TERHUNE AVE & KENNEDY BLVD;  ,JERSEY CITY,40.70127106,-74.09313965,1,SX
16-000110,S,1/1/16 1:07,1,1/1/16 1:09,1/1/16 1:30,C29.00,BURG ALARM RESIDENTIAL PROP; TIME ELAPSED NOT APPLICABLE; INJURY NOT APPLICABLE,PH,4,S501,TRUE,384 ARMSTRONG AVE;  ,JERSEY CITY,40.70809937,-74.09476471,1,S5HPNTSCZA
16-000111,S,1/1/16 1:09,1,1/1/16 1:11,1/1/16 1:14,F18.00,GUNSHOTS FIRED HEARD ( NO WITNESS / VICTIM ); TIME ELAPSED NOT APPLICABLE; INJURY NOT APPLICABLE,911,2,SPSGTM,FALSE,561 GARFIELD AVE;  ,JERSEY CITY,40.70016479,-74.08000183,1,S5HPNTSCZA
16-000111,S,1/1/16 1:09,1,1/1/16 1:11,1/1/16 1:14,F18.00,GUNSHOTS FIRED HEARD ( NO WITNESS / VICTIM ); TIME ELAPSED NOT APPLICABLE; INJURY NOT APPLICABLE,911,2,S201,TRUE,561 GARFIELD AVE;  ,JERSEY CITY,40.70016479,-74.08000183,1,S5HPNTSCZA
16-000111,S,1/1/16 1:09,1,1/1/16 1:11,1/1/16 1:14,F18.00,GUNSHOTS FIRED HEARD ( NO WITNESS / VICTIM ); TIME ELAPSED NOT APPLICABLE; INJURY NOT APPLICABLE,911,2,S101,FALSE,561 GARFIELD AVE;  ,JERSEY CITY,40.70016479,-74.08000183,1,S5HPNTSCZA
16-000113,N,1/1/16 1:10,1,1/1/16 1:12,1/1/16 1:21,C14.00,DAMAGE MOTOR VEHICLE; TIME ELAPSED NOT APPLICABLE; INJURY NOT APPLICABLE,911,6,N601,TRUE,BOWERS ST & CAMBRIDGE AVE;  ,JERSEY CITY,40.74702072,-74.04740906,1,SX
16-000114,E,1/1/16 1:10,1,1/1/16 1:11,1/1/16 1:17,F13.00,HAZARDOUS CONDITION; TIME ELAPSED NOT APPLICABLE; INJURY NOT APPLICABLE,911,2,E401,FALSE,CHRISTOPHER COLUMBUS (CHRISTOPHER COLUMBUS DR) & HUDSON ST;  ,JERSEY CITY,40.71702957,-74.03397369,1,SX
16-000114,E,1/1/16 1:10,1,1/1/16 1:11,1/1/16 1:17,F13.00,HAZARDOUS CONDITION; TIME ELAPSED NOT APPLICABLE; INJURY NOT APPLICABLE,911,2,E101,TRUE,CHRISTOPHER COLUMBUS (CHRISTOPHER COLUMBUS DR) & HUDSON ST;  ,JERSEY CITY,40.71702957,-74.03397369,1,SX
16-000118,N,1/1/16 1:13,1,1/1/16 1:15,1/1/16 1:20,C22.00,THEFT PROP FROM VEHICLE; TIME ELAPSED NOT APPLICABLE; INJURY NOT APPLICABLE,PH,6,N401,TRUE,201 SAINT PAUL (ST PAULS AVE);  ,JERSEY CITY,40.73724365,-74.05928802,1,S5HPNTSC-A
16-000119,S,1/1/16 1:13,1,1/1/16 1:15,1/1/16 1:56,E13.00,LOUD MUSIC; TIME ELAPSED NOT APPLICABLE; INJURY NOT APPLICABLE,PH,7,S201,TRUE,39 BRIARWOOD RD;  ,JERSEY CITY,40.69661331,-74.10469055,1,S5HPNTSCZA
16-000121,S,1/1/16 1:17,1,1/1/16 1:19,1/1/16 1:25,D11.00,MOTOR VEHICLE ACCIDENT; TIME ELAPSED NOT APPLICABLE; INJURY NOT APPLICABLE,PH,3,CBCI,FALSE,191 BERGEN AVE;  ,JERSEY CITY,40.70915985,-74.08473969,1,S5HPNTSCZA
16-000121,S,1/1/16 1:17,1,1/1/16 1:19,1/1/16 1:25,D11.00,MOTOR VEHICLE ACCIDENT; TIME ELAPSED NOT APPLICABLE; INJURY NOT APPLICABLE,PH,3,SPSGTM,FALSE,191 BERGEN AVE;  ,JERSEY CITY,40.70915985,-74.08473969,1,S5HPNTSCZA
16-000121,S,1/1/16 1:17,1,1/1/16 1:19,1/1/16 1:25,D11.00,MOTOR VEHICLE ACCIDENT; TIME ELAPSED NOT APPLICABLE; INJURY NOT APPLICABLE,PH,3,N201,FALSE,191 BERGEN AVE;  ,JERSEY CITY,40.70915985,-74.08473969,1,S5HPNTSCZA
16-000121,S,1/1/16 1:17,1,1/1/16 1:19,1/1/16 1:25,D11.00,MOTOR VEHICLE ACCIDENT; TIME ELAPSED NOT APPLICABLE; INJURY NOT APPLICABLE,PH,3,N601,FALSE,191 BERGEN AVE;  ,JERSEY CITY,40.70915985,-74.08473969,1,S5HPNTSCZA
16-000121,S,1/1/16 1:17,1,1/1/16 1:19,1/1/16 1:25,D11.00,MOTOR VEHICLE ACCIDENT; TIME ELAPSED NOT APPLICABLE; INJURY NOT APPLICABLE,PH,3,S101,TRUE,191 BERGEN AVE;  ,JERSEY CITY,40.70915985,-74.08473969,1,S5HPNTSCZA
16-000122,W,1/1/16 1:17,1,1/1/16 1:19,1/1/16 1:33,H13.00,AMBULANCE REQUEST FOR; TIME ELAPSED NOT APPLICABLE; INJURY NOT APPLICABLE,PH,3,W601,TRUE,MONTGOMERY (MONTGOMERY ST) & BERGEN AVE;  ,JERSEY CITY,40.72528076,-74.06809235,1,SX
16-000123,N,1/1/16 1:18,1,1/1/16 1:21,1/1/16 1:40,B23.00,OTHER INTER/CONFLICT; TIME ELAPSED NOT APPLICABLE; INJURY NOT APPLICABLE,911,5,N501,TRUE,779 NEWARK AVE; UNC: (% FL),JERSEY CITY,40.7354126,-74.06414032,1,S5HPNTSCZA
16-000126,W,1/1/16 1:23,1,1/1/16 1:25,1/1/01 0:00,B23.00,OTHER INTER/CONFLICT; TIME ELAPSED NOT APPLICABLE; INJURY NOT APPLICABLE,911,5,W101,TRUE,461 BERGEN AVE; (2 FL),JERSEY CITY,40.71725845,-74.07733917,1,S5HPNTSCZA
16-000146,E,1/1/16 1:33,1,1/1/16 1:34,1/1/16 1:42,F18.00,GUNSHOTS FIRED HEARD ( NO WITNESS / VICTIM ); TIME ELAPSED NOT APPLICABLE; INJURY NOT APPLICABLE,911,2,E601,TRUE,567 MONTGOMERY ST; UNC: (% FL),JERSEY CITY,40.72283173,-74.06143951,1,S5HPNTSCZA
16-000146,E,1/1/16 1:33,1,1/1/16 1:34,1/1/16 1:42,F18.00,GUNSHOTS FIRED HEARD ( NO WITNESS / VICTIM ); TIME ELAPSED NOT APPLICABLE; INJURY NOT APPLICABLE,911,2,E301,FALSE,567 MONTGOMERY ST; UNC: (% FL),JERSEY CITY,40.72283173,-74.06143951,1,S5HPNTSCZA
16-000148,S,1/1/16 1:34,1,1/1/16 1:36,1/1/16 1:49,D23.00,DRIVEWAY PARKING VIOLATION; TIME ELAPSED NOT APPLICABLE; INJURY NOT APPLICABLE,PH,7,S501,TRUE,30 STEGMAN ST;  ,JERSEY CITY,40.70171738,-74.07957459,1,S5HPNTSCZA
16-000151,S,1/1/16 1:35,1,1/1/16 1:37,1/1/16 2:20,D23.00,DRIVEWAY PARKING VIOLATION; TIME ELAPSED NOT APPLICABLE; INJURY NOT APPLICABLE,PH,7,S201,TRUE,11 SUBURBIA TER;  ,JERSEY CITY,40.70287323,-74.10070801,1,S5HPNTSCZA
16-000152,W,1/1/16 1:36,1,1/1/16 1:38,1/1/16 1:47,C31.00,BURG ALARM COMMERCIAL PROP; TIME ELAPSED NOT APPLICABLE; INJURY NOT APPLICABLE,PH,4,W401,TRUE,17 PARK ST;  ,JERSEY CITY,40.7167511,-74.06916046,1,S5HPNTSCZA
16-000155,N,1/1/16 1:38,1,1/1/16 1:41,1/1/16 1:45,B23.00,OTHER INTER/CONFLICT; TIME ELAPSED NOT APPLICABLE; INJURY NOT APPLICABLE,911,5,N101,TRUE,BLEECKER ST & CENTRAL AVE;  ,JERSEY CITY,40.7497406,-74.04679108,1,SX
16-000157,S,1/1/16 1:39,1,1/1/16 1:41,1/1/16 1:55,E14.00,STREET FIGHT ( NO WEAPONS ); TIME ELAPSED NOT APPLICABLE; INJURY NOT APPLICABLE,911,3,S301,TRUE,NEPTUNE AVE & OLD BERGEN RD;  ,JERSEY CITY,40.69327164,-74.09599304,2,SX
16-000167,E,1/1/16 1:45,1,1/1/16 1:46,1/1/16 1:45,J26.00,OTHER ADMIN POLICE ACTIVITY; TIME ELAPSED NOT APPLICABLE; INJURY NOT APPLICABLE,SI,9,E301,TRUE,207 7TH ST;  ,JERSEY CITY,40.72590637,-74.04273987,1,S5HPNTSCZA
16-000168,N,1/1/16 1:45,1,1/1/16 1:47,1/1/01 0:00,D34.00,HANDICAPPED PARKING; TIME ELAPSED NOT APPLICABLE; INJURY NOT APPLICABLE,PH,7,N301,TRUE,78 HUTTON ST;  ,JERSEY CITY,40.74428558,-74.0490799,1,S5HPNTSCZA
16-000172,E,1/1/16 1:48,1,1/1/16 1:49,1/1/01 0:00,E13.00,LOUD MUSIC; TIME ELAPSED NOT APPLICABLE; INJURY NOT APPLICABLE,PH,7,E201,TRUE,519 MANILA AVE;  ,JERSEY CITY,40.72838593,-74.04170227,1,S5HPNTSCZA
16-000173,W,1/1/16 1:48,1,1/1/16 1:50,1/1/01 0:00,E13.00,LOUD MUSIC; TIME ELAPSED NOT APPLICABLE; INJURY NOT APPLICABLE,PH,7,W201,TRUE,25 GIFFORD AVE;  ,JERSEY CITY,40.72066879,-74.07444,1,S5HPNTSCZA
16-000174,E,1/1/16 1:49,1,1/1/16 1:50,1/1/16 2:00,E13.00,LOUD MUSIC; TIME ELAPSED NOT APPLICABLE; INJURY NOT APPLICABLE,PH,7,E601,TRUE,328 COMMUNIPAW AVE;  ,JERSEY CITY,40.71055222,-74.06147766,1,S5HPNTSCZA
16-000174,E,1/1/16 1:49,1,1/1/16 1:50,1/1/16 2:00,E13.00,LOUD MUSIC; TIME ELAPSED NOT APPLICABLE; INJURY NOT APPLICABLE,PH,7,E501,FALSE,328 COMMUNIPAW AVE;  ,JERSEY CITY,40.71055222,-74.06147766,1,S5HPNTSCZA
16-000175,S,1/1/16 1:49,1,1/1/16 1:51,1/1/16 1:54,E14.00,STREET FIGHT ( NO WEAPONS ); TIME ELAPSED NOT APPLICABLE; INJURY NOT APPLICABLE,911,3,S501,TRUE,BIDWELL AVE & MARTIN LUTHER KING DR;  ,JERSEY CITY,40.70669174,-74.0839386,1,SX
16-000178,S,1/1/16 1:51,1,1/1/16 1:54,1/1/16 1:58,F16.00,SUSPICIOUS PERSON/CONDITION; TIME ELAPSED NOT APPLICABLE; INJURY NOT APPLICABLE,911,3,S301,TRUE,115 BROWN PL; A  ,JERSEY CITY,40.69063187,-74.09318542,1,S5HPNTSCZA
16-000184,E,1/1/16 1:54,1,1/1/16 1:56,1/1/16 2:01,D17.00,INTOXICATED DRIVER; TIME ELAPSED NOT APPLICABLE; INJURY NOT APPLICABLE,911,2,E401,TRUE,MONTGOMERY (MONTGOMERY ST) & WARREN ST;  ,JERSEY CITY,40.71702957,-74.03909302,2,SX
16-000191,W,1/1/16 1:58,1,1/1/16 2:01,1/1/01 0:00,D17.00,INTOXICATED DRIVER; TIME ELAPSED NOT APPLICABLE; INJURY NOT APPLICABLE,911,2,W601,TRUE,85 VAN WAGENEN AVE;  ,JERSEY CITY,40.73313904,-74.07007599,1,S5HPNTSCZA
16-000198,S,1/1/16 2:01,1,1/1/16 2:02,1/1/16 2:19,E14.00,STREET FIGHT ( NO WEAPONS ); TIME ELAPSED NOT APPLICABLE; INJURY NOT APPLICABLE,911,3,S301,TRUE,NEPTUNE AVE & KENNEDY BLVD;  ,JERSEY CITY,40.69623184,-74.0983429,2,SX
16-000206,N,1/1/16 2:05,1,1/1/16 2:10,1/1/01 0:00,A11.00,ASSAULT WEAPON; TIME ELAPSED NOT APPLICABLE; INJURY NOT APPLICABLE,911,5,N501,TRUE,PALISADE AVE & NEWARK AVE;  ,JERSEY CITY,40.72991943,-74.05523682,1,SX
16-000206,N,1/1/16 2:05,1,1/1/16 2:10,1/1/01 0:00,A11.00,ASSAULT WEAPON; TIME ELAPSED NOT APPLICABLE; INJURY NOT APPLICABLE,911,5,N401,FALSE,PALISADE AVE & NEWARK AVE;  ,JERSEY CITY,40.72991943,-74.05523682,1,SX
16-000229,E,1/1/16 2:17,1,1/1/16 2:18,1/1/01 0:00,C31.00,BURG ALARM COMMERCIAL PROP; TIME ELAPSED NOT APPLICABLE; INJURY NOT APPLICABLE,PH,4,E101,TRUE,396 MARIN BLVD;  ,JERSEY CITY,40.72306824,-74.04066467,1,S5HPNTSC-A
16-000234,N,1/1/16 2:19,1,1/1/16 2:20,1/1/16 2:19,B22.00,PREVENT BREACH OF PEACE; TIME ELAPSED NOT APPLICABLE; INJURY NOT APPLICABLE,SI,7,N101,TRUE,PALISADE AVE & RESERVOIR AVE;  ,JERSEY CITY,40.73804092,-74.04811096,1,SX
16-000248,S,1/1/16 2:25,1,1/1/16 2:27,1/1/16 2:30,E14.00,STREET FIGHT ( NO WEAPONS ); TIME ELAPSED NOT APPLICABLE; INJURY NOT APPLICABLE,911,3,S501,TRUE,77 CLERK ST;  ,JERSEY CITY,40.70672226,-74.07692719,1,S5HPNTSCZA
16-000248,S,1/1/16 2:25,1,1/1/16 2:27,1/1/16 2:30,E14.00,STREET FIGHT ( NO WEAPONS ); TIME ELAPSED NOT APPLICABLE; INJURY NOT APPLICABLE,911,3,S201,FALSE,77 CLERK ST;  ,JERSEY CITY,40.70672226,-74.07692719,1,S5HPNTSCZA
16-000251,W,1/1/16 2:29,1,1/1/16 2:31,1/1/16 2:37,B21.00,MERCHANT/CUSTOMER DISPUTE; TIME ELAPSED NOT APPLICABLE; INJURY NOT APPLICABLE,PH,5,W101,TRUE,GARFIELD AVE & UNION ST;  ,JERSEY CITY,40.71088028,-74.06986237,1,SX
16-000252,N,1/1/16 2:30,1,1/1/16 2:32,1/1/16 2:35,C14.00,DAMAGE MOTOR VEHICLE; TIME ELAPSED NOT APPLICABLE; INJURY NOT APPLICABLE,911,6,N301,TRUE,COURT HOUSE PL & BALDWIN AVE;  ,JERSEY CITY,40.73215103,-74.0559082,1,SX
16-000253,N,1/1/16 2:32,1,1/1/16 2:43,1/1/16 2:46,B23.00,OTHER INTER/CONFLICT; TIME ELAPSED NOT APPLICABLE; INJURY NOT APPLICABLE,911,5,N501,TRUE,456 BALDWIN AVE; (3 FL),JERSEY CITY,40.7363739,-74.05156708,1,S5HPNTSCZA
16-000253,N,1/1/16 2:32,1,1/1/16 2:43,1/1/16 2:46,B23.00,OTHER INTER/CONFLICT; TIME ELAPSED NOT APPLICABLE; INJURY NOT APPLICABLE,911,5,N401,FALSE,456 BALDWIN AVE; (3 FL),JERSEY CITY,40.7363739,-74.05156708,1,S5HPNTSCZA
16-000257,W,1/1/16 2:34,1,1/1/16 2:36,1/1/16 2:35,E14.00,STREET FIGHT ( NO WEAPONS ); TIME ELAPSED NOT APPLICABLE; INJURY NOT APPLICABLE,SI,3,W401,FALSE,77 CLARKE AVE;  ,JERSEY CITY,40.7171936,-74.08953094,1,S5HPNTSCZA
16-000257,W,1/1/16 2:34,1,1/1/16 2:36,1/1/16 2:35,E14.00,STREET FIGHT ( NO WEAPONS ); TIME ELAPSED NOT APPLICABLE; INJURY NOT APPLICABLE,SI,3,W201,TRUE,77 CLARKE AVE;  ,JERSEY CITY,40.7171936,-74.08953094,1,S5HPNTSCZA
16-000262,W,1/1/16 2:38,1,1/1/16 2:41,1/1/16 2:57,D11.00,MOTOR VEHICLE ACCIDENT; TIME ELAPSED NOT APPLICABLE; INJURY NOT APPLICABLE,PH,3,W601,TRUE,100 SKYWAY;  ,JERSEY CITY,0,0,0,NOT FOUND
16-000272,E,1/1/16 2:45,1,1/1/16 2:47,1/1/16 2:50,E14.00,STREET FIGHT ( NO WEAPONS ); TIME ELAPSED NOT APPLICABLE; INJURY NOT APPLICABLE,PH,3,ESGT,FALSE,2 2ND ST;  ,JERSEY CITY,40.72136688,-74.03211212,1,S5HPNTSCZA
16-000272,E,1/1/16 2:45,1,1/1/16 2:47,1/1/16 2:50,E14.00,STREET FIGHT ( NO WEAPONS ); TIME ELAPSED NOT APPLICABLE; INJURY NOT APPLICABLE,PH,3,E401,FALSE,2 2ND ST;  ,JERSEY CITY,40.72136688,-74.03211212,1,S5HPNTSCZA
16-000272,E,1/1/16 2:45,1,1/1/16 2:47,1/1/16 2:50,E14.00,STREET FIGHT ( NO WEAPONS ); TIME ELAPSED NOT APPLICABLE; INJURY NOT APPLICABLE,PH,3,CE1M,FALSE,2 2ND ST;  ,JERSEY CITY,40.72136688,-74.03211212,1,S5HPNTSCZA
16-000272,E,1/1/16 2:45,1,1/1/16 2:47,1/1/16 2:50,E14.00,STREET FIGHT ( NO WEAPONS ); TIME ELAPSED NOT APPLICABLE; INJURY NOT APPLICABLE,PH,3,E201,FALSE,2 2ND ST;  ,JERSEY CITY,40.72136688,-74.03211212,1,S5HPNTSCZA
16-000272,E,1/1/16 2:45,1,1/1/16 2:47,1/1/16 2:50,E14.00,STREET FIGHT ( NO WEAPONS ); TIME ELAPSED NOT APPLICABLE; INJURY NOT APPLICABLE,PH,3,E501,TRUE,2 2ND ST;  ,JERSEY CITY,40.72136688,-74.03211212,1,S5HPNTSCZA
16-000278,E,1/1/16 2:48,1,1/1/16 2:49,1/1/16 3:00,E13.00,LOUD MUSIC; TIME ELAPSED NOT APPLICABLE; INJURY NOT APPLICABLE,PH,7,E301,TRUE,2ND ST & JERSEY AVE;  ,JERSEY CITY,40.72264862,-74.04586792,1,SX
16-000291,N,1/1/16 2:54,1,1/1/16 2:56,1/1/16 3:04,E11.00,DISORDERLY CONDUCT; TIME ELAPSED NOT APPLICABLE; INJURY NOT APPLICABLE,PH,7,N201,TRUE,128 HUTTON ST;  ,JERSEY CITY,40.74521637,-74.05142975,1,S5HPNTSCZA
16-000297,S,1/1/16 2:57,1,1/1/16 3:00,1/1/16 3:10,C27.00,MOTOR VEHICLE THEFT; TIME ELAPSED NOT APPLICABLE; INJURY NOT APPLICABLE,911,6,S301,TRUE,233 LEMBECK AVE;  ,JERSEY CITY,40.69776917,-74.09586334,1,S5HPNTSCZA
16-000298,N,1/1/16 2:58,1,1/1/16 3:15,1/1/16 3:19,F16.00,SUSPICIOUS PERSON/CONDITION; TIME ELAPSED NOT APPLICABLE; INJURY NOT APPLICABLE,911,3,N101,TRUE,486 PAVONIA AVE; (2 FL),JERSEY CITY,40.73015213,-74.05638123,1,S5HPNTSCZA
16-000300,W,1/1/16 3:00,1,1/1/16 3:02,1/1/01 0:00,E11.00,DISORDERLY CONDUCT; TIME ELAPSED NOT APPLICABLE; INJURY NOT APPLICABLE,PH,7,W301,TRUE,DUNCAN AVE & BERGEN AVE;  ,JERSEY CITY,40.72385025,-74.07015991,1,SX
16-000304,E,1/1/16 3:03,1,1/1/16 3:06,1/1/16 3:12,H13.00,AMBULANCE REQUEST FOR; TIME ELAPSED NOT APPLICABLE; INJURY NOT APPLICABLE,911,3,E601,TRUE,88 FREMONT ST;  ,JERSEY CITY,40.71948624,-74.05976105,1,S5HPNTSCZA
16-000326,W,1/1/16 3:16,1,1/1/16 3:17,1/1/16 3:16,H13.00,AMBULANCE REQUEST FOR; TIME ELAPSED NOT APPLICABLE; INJURY NOT APPLICABLE,SI,3,WSLAF1,TRUE,FORREST ST & MARTIN LUTHER KING DR;  ,JERSEY CITY,40.71295929,-74.07704163,1,SX
16-000330,E,1/1/16 3:18,1,1/1/16 3:21,1/1/16 3:23,E14.00,STREET FIGHT ( NO WEAPONS ); TIME ELAPSED NOT APPLICABLE; INJURY NOT APPLICABLE,911,3,E401,FALSE,WHITON ST & COMMUNIPAW AVE;  ,JERSEY CITY,40.71086884,-74.06199646,1,SX
16-000330,E,1/1/16 3:18,1,1/1/16 3:21,1/1/16 3:23,E14.00,STREET FIGHT ( NO WEAPONS ); TIME ELAPSED NOT APPLICABLE; INJURY NOT APPLICABLE,911,3,E301,FALSE,WHITON ST & COMMUNIPAW AVE;  ,JERSEY CITY,40.71086884,-74.06199646,1,SX
16-000330,E,1/1/16 3:18,1,1/1/16 3:21,1/1/16 3:23,E14.00,STREET FIGHT ( NO WEAPONS ); TIME ELAPSED NOT APPLICABLE; INJURY NOT APPLICABLE,911,3,E201,FALSE,WHITON ST & COMMUNIPAW AVE;  ,JERSEY CITY,40.71086884,-74.06199646,1,SX
16-000330,E,1/1/16 3:18,1,1/1/16 3:21,1/1/16 3:23,E14.00,STREET FIGHT ( NO WEAPONS ); TIME ELAPSED NOT APPLICABLE; INJURY NOT APPLICABLE,911,3,E101,TRUE,WHITON ST & COMMUNIPAW AVE;  ,JERSEY CITY,40.71086884,-74.06199646,1,SX
16-000334,S,1/1/16 3:20,1,1/1/16 3:22,1/1/16 3:26,H13.00,AMBULANCE REQUEST FOR; TIME ELAPSED NOT APPLICABLE; INJURY NOT APPLICABLE,PH,3,S501,FALSE,208 PEARSALL AVE; 2  ,JERSEY CITY,40.69671631,-74.09555054,1,S5HPNTSCZA
16-000334,S,1/1/16 3:20,1,1/1/16 3:22,1/1/16 3:26,H13.00,AMBULANCE REQUEST FOR; TIME ELAPSED NOT APPLICABLE; INJURY NOT APPLICABLE,PH,3,S201,TRUE,208 PEARSALL AVE; 2  ,JERSEY CITY,40.69671631,-74.09555054,1,S5HPNTSCZA
16-000342,W,1/1/16 3:23,1,1/1/16 3:25,1/1/16 3:24,H13.00,AMBULANCE REQUEST FOR; TIME ELAPSED NOT APPLICABLE; INJURY NOT APPLICABLE,SI,3,W401,TRUE,BERGEN AVE & ATLANTIC ST;  ,JERSEY CITY,40.71632004,-74.07845306,1,SX
16-000346,N,1/1/16 3:25,1,1/1/16 3:26,1/1/01 0:00,E13.00,LOUD MUSIC; TIME ELAPSED NOT APPLICABLE; INJURY NOT APPLICABLE,PH,7,N301,TRUE,1007 SUMMIT AVE;  ,JERSEY CITY,40.74884033,-74.05056,1,S5HPNTSCZA
16-000348,W,1/1/16 3:25,1,1/1/16 3:27,1/1/16 3:26,Z33.00,RING BACK; TIME ELAPSED NOT APPLICABLE; INJURY NOT APPLICABLE,SI,9,W501,TRUE,111 VAN WAGENEN AVE;  ,JERSEY CITY,40.7331543,-74.07006836,1,S5HPNTSCZA
16-000360,E,1/1/16 3:30,1,1/1/16 3:32,1/1/01 0:00,A12.20,ASSAULT NO WEAPON; IN PROGRESS AND/OR ACTOR ON SCENE; INJURY NOT APPLICABLE,PH,2,E601,TRUE,21 2ND ST;  ,JERSEY CITY,40.72134018,-74.03327179,1,S5HPNTSCZA
16-000360,E,1/1/16 3:30,1,1/1/16 3:32,1/1/01 0:00,A12.20,ASSAULT NO WEAPON; IN PROGRESS AND/OR ACTOR ON SCENE; INJURY NOT APPLICABLE,PH,2,E101,FALSE,21 2ND ST;  ,JERSEY CITY,40.72134018,-74.03327179,1,S5HPNTSCZA
16-000361,E,1/1/16 3:30,1,1/1/16 3:34,1/1/01 0:00,A12.00,ASSAULT NO WEAPON; TIME ELAPSED NOT APPLICABLE; INJURY NOT APPLICABLE,PH,5,E401,TRUE,407 MONMOUTH ST;  ,JERSEY CITY,40.72373581,-74.04919434,1,S5HPNTSCZA
16-000365,N,1/1/16 3:34,1,1/1/16 3:35,1/1/01 0:00,E13.00,LOUD MUSIC; TIME ELAPSED NOT APPLICABLE; INJURY NOT APPLICABLE,PH,7,N401,TRUE,41 RAVINE AVE;  ,JERSEY CITY,40.74040222,-74.04937744,1,S5HPNTSCZA
16-000370,S,1/1/16 3:35,1,1/1/16 3:39,1/1/16 3:46,H31.01,PERSON DOWN/CAUSE UNKNOWN; TIME ELAPSED NOT APPLICABLE; INJURY,PH,1,S201,TRUE,NEPTUNE AVE & OCEAN AVE;  ,JERSEY CITY,40.69208908,-74.09493256,1,SX
16-000379,E,1/1/16 3:40,1,1/1/16 3:42,1/1/01 0:00,A12.22,ASSAULT NO WEAPON; IN PROGRESS AND/OR ACTOR ON SCENE; ATTEMPT TO CAUSE INJURY,PH,2,E101,TRUE,221 PACIFIC AVE; 4  ,JERSEY CITY,40.70965576,-74.0652771,1,S5HPNTSCZA
16-000380,S,1/1/16 3:42,1,1/1/16 3:44,1/1/01 0:00,F16.00,SUSPICIOUS PERSON/CONDITION; TIME ELAPSED NOT APPLICABLE; INJURY NOT APPLICABLE,PH,3,S201,FALSE,295 BERGEN AVE; (3 FL),JERSEY CITY,40.71213531,-74.08240509,1,S5HPNTSCZA
16-000382,W,1/1/16 3:42,1,1/1/16 3:43,1/1/01 0:00,E13.00,LOUD MUSIC; TIME ELAPSED NOT APPLICABLE; INJURY NOT APPLICABLE,911,7,W101,TRUE,39 UNION ST; 2 (2 FL),JERSEY CITY,40.71213913,-74.07241058,1,S5HPNTSCZA
16-000383,E,1/1/16 3:42,1,1/1/16 3:45,1/1/01 0:00,B21.00,MERCHANT/CUSTOMER DISPUTE; TIME ELAPSED NOT APPLICABLE; INJURY NOT APPLICABLE,PH,5,E301,TRUE,2ND ST & BRUNSWICK ST;  ,JERSEY CITY,40.72306061,-74.0508728,1,SX
16-000386,E,1/1/16 3:46,1,1/1/16 3:50,1/1/16 4:03,C24.00,THEFT OTHER PROP; TIME ELAPSED NOT APPLICABLE; INJURY NOT APPLICABLE,911,6,E601,TRUE,118 BRUNSWICK ST; (3R FL),JERSEY CITY,40.72298813,-74.05078888,1,S5HPNTSCZA
16-000390,S,1/1/16 3:51,1,1/1/16 3:53,1/1/16 4:08,A12.20,ASSAULT NO WEAPON; IN PROGRESS AND/OR ACTOR ON SCENE; INJURY NOT APPLICABLE,PH,2,S501,FALSE,WILKENSON AVE (WILKINSON AVE) & OCEAN AVE;  ,JERSEY CITY,40.70544815,-74.07865143,2,SX
16-000390,S,1/1/16 3:51,1,1/1/16 3:53,1/1/16 4:08,A12.20,ASSAULT NO WEAPON; IN PROGRESS AND/OR ACTOR ON SCENE; INJURY NOT APPLICABLE,PH,2,S201,TRUE,WILKENSON AVE (WILKINSON AVE) & OCEAN AVE;  ,JERSEY CITY,40.70544815,-74.07865143,2,SX
16-000395,S,1/1/16 3:53,1,1/1/16 3:56,1/1/16 3:53,F16.00,SUSPICIOUS PERSON/CONDITION; TIME ELAPSED NOT APPLICABLE; INJURY NOT APPLICABLE,SI,3,S201,TRUE,DANFORTH AVE & OLD BERGEN RD;  ,JERSEY CITY,40.69797134,-74.09262848,1,SX
16-000398,N,1/1/16 3:54,1,1/1/16 3:55,1/1/16 3:54,E21.00,OTHER PUBLIC NUISANCE; TIME ELAPSED NOT APPLICABLE; INJURY NOT APPLICABLE,SI,7,NSGT,FALSE,646 NEWARK AVE;  ,JERSEY CITY,40.73405838,-74.05854797,1,S5HPNTSCZA
16-000398,N,1/1/16 3:54,1,1/1/16 3:55,1/1/16 3:54,E21.00,OTHER PUBLIC NUISANCE; TIME ELAPSED NOT APPLICABLE; INJURY NOT APPLICABLE,SI,7,N401,FALSE,646 NEWARK AVE;  ,JERSEY CITY,40.73405838,-74.05854797,1,S5HPNTSCZA
16-000398,N,1/1/16 3:54,1,1/1/16 3:55,1/1/16 3:54,E21.00,OTHER PUBLIC NUISANCE; TIME ELAPSED NOT APPLICABLE; INJURY NOT APPLICABLE,SI,7,N301,TRUE,646 NEWARK AVE;  ,JERSEY CITY,40.73405838,-74.05854797,1,S5HPNTSCZA
16-000398,N,1/1/16 3:54,1,1/1/16 3:55,1/1/16 3:54,E21.00,OTHER PUBLIC NUISANCE; TIME ELAPSED NOT APPLICABLE; INJURY NOT APPLICABLE,SI,7,N101,FALSE,646 NEWARK AVE;  ,JERSEY CITY,40.73405838,-74.05854797,1,S5HPNTSCZA
16-000398,N,1/1/16 3:54,1,1/1/16 3:55,1/1/16 3:54,E21.00,OTHER PUBLIC NUISANCE; TIME ELAPSED NOT APPLICABLE; INJURY NOT APPLICABLE,SI,7,CCMDR,FALSE,646 NEWARK AVE;  ,JERSEY CITY,40.73405838,-74.05854797,1,S5HPNTSCZA
16-000402,W,1/1/16 3:57,1,1/1/16 3:58,1/1/01 0:00,D21.00,HYDRANT PARKING VIOLATION; TIME ELAPSED NOT APPLICABLE; INJURY NOT APPLICABLE,PH,7,W201,TRUE,72 VIRGINIA AVE;  ,JERSEY CITY,40.7129097,-74.07846069,1,S5HPNTSCZA
16-000407,S,1/1/16 4:02,1,1/1/16 4:03,1/1/16 4:02,E14.00,STREET FIGHT ( NO WEAPONS ); TIME ELAPSED NOT APPLICABLE; INJURY NOT APPLICABLE,SI,3,S501,FALSE,OCEAN AVE & NEW ST;  ,JERSEY CITY,40.69673157,-74.08882904,1,SX
16-000407,S,1/1/16 4:02,1,1/1/16 4:03,1/1/16 4:02,E14.00,STREET FIGHT ( NO WEAPONS ); TIME ELAPSED NOT APPLICABLE; INJURY NOT APPLICABLE,SI,3,S201,TRUE,OCEAN AVE & NEW ST;  ,JERSEY CITY,40.69673157,-74.08882904,1,SX
16-000412,N,1/1/16 4:04,1,1/1/16 4:05,1/1/16 4:05,J24.00,DIRECTED PATROL; TIME ELAPSED NOT APPLICABLE; INJURY NOT APPLICABLE,SI,9,N301,FALSE,CHARLES ST & SUMMIT AVE;  ,JERSEY CITY,40.74885941,-74.05043793,1,SX
16-000412,N,1/1/16 4:04,1,1/1/16 4:05,1/1/16 4:05,J24.00,DIRECTED PATROL; TIME ELAPSED NOT APPLICABLE; INJURY NOT APPLICABLE,SI,9,N201,TRUE,CHARLES ST & SUMMIT AVE;  ,JERSEY CITY,40.74885941,-74.05043793,1,SX
16-000421,E,1/1/16 4:11,1,1/1/16 4:12,1/1/16 4:11,C14.00,DAMAGE MOTOR VEHICLE; TIME ELAPSED NOT APPLICABLE; INJURY NOT APPLICABLE,SI,6,E301,FALSE,COLE (COLES ST) & NEWARK AVE;  ,JERSEY CITY,40.72237015,-74.04763794,1,SX
16-000421,E,1/1/16 4:11,1,1/1/16 4:12,1/1/16 4:11,C14.00,DAMAGE MOTOR VEHICLE; TIME ELAPSED NOT APPLICABLE; INJURY NOT APPLICABLE,SI,6,CE3M,TRUE,COLE (COLES ST) & NEWARK AVE;  ,JERSEY CITY,40.72237015,-74.04763794,1,SX
16-000431,S,1/1/16 4:18,1,1/1/16 4:19,1/1/16 4:33,A12.00,ASSAULT NO WEAPON; TIME ELAPSED NOT APPLICABLE; INJURY NOT APPLICABLE,PH,5,S201,TRUE,GRANT AVE & OCEAN AVE;  ,JERSEY CITY,40.70718002,-74.07774353,1,SX
16-000432,W,1/1/16 4:19,1,1/1/16 4:22,1/1/01 0:00,H13.00,AMBULANCE REQUEST FOR; TIME ELAPSED NOT APPLICABLE; INJURY NOT APPLICABLE,911,3,W301,TRUE,BERGEN AVE & GLENWOOD AVE;  ,JERSEY CITY,40.72631836,-74.06754303,1,SX
16-000433,S,1/1/16 4:19,1,1/1/16 4:20,1/1/16 4:25,A12.30,ASSAULT NO WEAPON; PERSON CRIME OCCURRED WITHIN 10 MINUTES; INJURY NOT APPLICABLE,911,3,S501,TRUE,60 WILKINSON AVE; 1R  ,JERSEY CITY,40.70524216,-74.07811737,1,S5HPNTSCZA
16-000435,S,1/1/16 4:22,1,1/1/16 4:25,1/1/01 0:00,C31.00,BURG ALARM COMMERCIAL PROP; TIME ELAPSED NOT APPLICABLE; INJURY NOT APPLICABLE,PH,4,S501,TRUE,360 MLK (MARTIN LUTHER KING DR);  ,JERSEY CITY,40.71146774,-74.07826996,1,S5HP-TSC-A
16-000446,S,1/1/16 4:32,1,1/1/16 4:34,1/1/01 0:00,F21.00,SLUMPER IN VEHICLE; TIME ELAPSED NOT APPLICABLE; INJURY NOT APPLICABLE,PH,2,S501,TRUE,WOODLAWN AVE & OCEAN AVE;  ,JERSEY CITY,40.7009697,-74.08300781,1,SX
16-000456,N,1/1/16 4:43,1,1/1/16 4:45,1/1/16 4:50,E15.00,LOITERING; TIME ELAPSED NOT APPLICABLE; INJURY NOT APPLICABLE,911,7,N401,TRUE,11 JEFFERSON AVE;  ,JERSEY CITY,40.73620224,-74.04981232,1,S5HPNTSCZA
16-000463,W,1/1/16 4:48,1,1/1/16 4:49,1/1/01 0:00,Z33.00,RING BACK; TIME ELAPSED NOT APPLICABLE; INJURY NOT APPLICABLE,911,9,W101,TRUE,445 MARTIN LUTHER KING DR;  ,JERSEY CITY,40.71340179,-74.07672119,1,S5HP-TSC-A
16-000465,E,1/1/16 4:51,1,1/1/16 4:52,1/1/16 5:14,Z33.00,RING BACK; TIME ELAPSED NOT APPLICABLE; INJURY NOT APPLICABLE,911,9,E101,TRUE,72 MONTGOMERY ST; APT  1401  ,JERSEY CITY,40.71689987,-74.03730011,1,S5HPNTSCZA
16-000469,W,1/1/16 4:54,1,1/1/16 4:56,1/1/16 5:08,A11.00,ASSAULT WEAPON; TIME ELAPSED NOT APPLICABLE; INJURY NOT APPLICABLE,911,5,W201,FALSE,117 KENSINGTON AVE;  ,JERSEY CITY,40.72374344,-74.07684326,1,S5HPNTSCZA
16-000469,W,1/1/16 4:54,1,1/1/16 4:56,1/1/16 5:08,A11.00,ASSAULT WEAPON; TIME ELAPSED NOT APPLICABLE; INJURY NOT APPLICABLE,911,5,W501,TRUE,117 KENSINGTON AVE;  ,JERSEY CITY,40.72374344,-74.07684326,1,S5HPNTSCZA
16-000481,W,1/1/16 5:06,1,1/1/16 5:09,1/1/16 5:35,C29.00,BURG ALARM RESIDENTIAL PROP; TIME ELAPSED NOT APPLICABLE; INJURY NOT APPLICABLE,PH,4,W201,FALSE,55 MALLORY AVE; 74  ,JERSEY CITY,40.71606064,-74.09142303,1,S5HPNTSCZA
16-000481,W,1/1/16 5:06,1,1/1/16 5:09,1/1/16 5:35,C29.00,BURG ALARM RESIDENTIAL PROP; TIME ELAPSED NOT APPLICABLE; INJURY NOT APPLICABLE,PH,4,W101,TRUE,55 MALLORY AVE; 74  ,JERSEY CITY,40.71606064,-74.09142303,1,S5HPNTSCZA
16-000482,E,1/1/16 5:06,1,1/1/16 5:10,1/1/16 5:14,H13.00,AMBULANCE REQUEST FOR; TIME ELAPSED NOT APPLICABLE; INJURY NOT APPLICABLE,911,3,E401,TRUE,NEWARK AVE & JERSEY AVE;  ,JERSEY CITY,40.72159958,-74.04615021,1,SX
16-000486,W,1/1/16 5:12,1,1/1/16 5:15,1/1/16 5:54,H23.00,LOST / MISLAID PROPERTY; TIME ELAPSED NOT APPLICABLE; INJURY NOT APPLICABLE,PH,6,W401,TRUE,SIP AVE & JOURNAL SQ;  ,JERSEY CITY,40.73083878,-74.06433868,1,SX
16-000488,N,1/1/16 5:17,1,1/1/16 5:18,1/1/16 5:30,D11.01,MOTOR VEHICLE ACCIDENT; TIME ELAPSED NOT APPLICABLE; INJURY,PH,1,N101,TRUE,881 TONNELE AVE;  ,JERSEY CITY,40.75875473,-74.05253601,1,S5HPNTSCZA
16-000492,W,1/1/16 5:20,1,1/1/16 5:24,1/1/16 5:48,A12.20,ASSAULT NO WEAPON; IN PROGRESS AND/OR ACTOR ON SCENE; INJURY NOT APPLICABLE,911,2,W401,TRUE,57 SIP AVE;  ,JERSEY CITY,40.73045349,-74.06208801,1,S5HPNTSCZA
16-000493,W,1/1/16 5:20,1,1/1/16 5:21,1/1/16 5:35,F21.00,SLUMPER IN VEHICLE; TIME ELAPSED NOT APPLICABLE; INJURY NOT APPLICABLE,911,2,W601,TRUE,MONTICELLO (MONTICELLO AVE) & HARRISON AVE;  ,JERSEY CITY,40.71760941,-74.07230377,1,SX
16-000494,E,1/1/16 5:21,1,1/1/16 5:23,1/1/16 5:35,A12.00,ASSAULT NO WEAPON; TIME ELAPSED NOT APPLICABLE; INJURY NOT APPLICABLE,PH,5,E601,TRUE,480 WASHINGTON BLVD;  ,JERSEY CITY,40.72544861,-74.0353241,1,S5HPNTSCZA
16-000500,E,1/1/16 5:27,1,1/1/16 5:28,1/1/16 5:27,J26.00,OTHER ADMIN POLICE ACTIVITY; TIME ELAPSED NOT APPLICABLE; INJURY NOT APPLICABLE,SI,9,E501,TRUE,207 7TH ST;  ,JERSEY CITY,40.72590637,-74.04273987,1,S5HPNTSCZA
16-000501,S,1/1/16 5:29,1,1/1/16 5:31,1/1/16 7:38,B23.00,OTHER INTER/CONFLICT; TIME ELAPSED NOT APPLICABLE; INJURY NOT APPLICABLE,PH,3,S302,FALSE,27 GRANT AVE; (2 FL),JERSEY CITY,40.70775986,-74.07879639,1,S5HPNTSCZA
16-000501,S,1/1/16 5:29,1,1/1/16 5:31,1/1/16 7:38,B23.00,OTHER INTER/CONFLICT; TIME ELAPSED NOT APPLICABLE; INJURY NOT APPLICABLE,PH,3,S102,TRUE,27 GRANT AVE; (2 FL),JERSEY CITY,40.70775986,-74.07879639,1,S5HPNTSCZA
16-000502,E,1/1/16 5:29,1,1/1/16 5:31,1/1/16 5:40,A12.20,ASSAULT NO WEAPON; IN PROGRESS AND/OR ACTOR ON SCENE; INJURY NOT APPLICABLE,911,2,E401,TRUE,WARREN ST & CHRISTOPHER COLUMBUS DR;  ,JERSEY CITY,40.71821976,-74.03884888,1,SX
16-000502,E,1/1/16 5:29,1,1/1/16 5:31,1/1/16 5:40,A12.20,ASSAULT NO WEAPON; IN PROGRESS AND/OR ACTOR ON SCENE; INJURY NOT APPLICABLE,911,2,E101,FALSE,WARREN ST & CHRISTOPHER COLUMBUS DR;  ,JERSEY CITY,40.71821976,-74.03884888,1,SX
16-000503,N,1/1/16 5:31,1,1/1/16 5:33,1/1/16 5:36,A18.20,ROB AT RESIDENCE; IN PROGRESS AND/OR ACTOR ON SCENE; INJURY NOT APPLICABLE,911,2,NSGT,FALSE,188 TONNELE AVE; (2 FL),JERSEY CITY,40.73738861,-74.06584167,1,S5HPNTSCZA
16-000503,N,1/1/16 5:31,1,1/1/16 5:33,1/1/16 5:36,A18.20,ROB AT RESIDENCE; IN PROGRESS AND/OR ACTOR ON SCENE; INJURY NOT APPLICABLE,911,2,N301,FALSE,188 TONNELE AVE; (2 FL),JERSEY CITY,40.73738861,-74.06584167,1,S5HPNTSCZA
16-000503,N,1/1/16 5:31,1,1/1/16 5:33,1/1/16 5:36,A18.20,ROB AT RESIDENCE; IN PROGRESS AND/OR ACTOR ON SCENE; INJURY NOT APPLICABLE,911,2,N201,TRUE,188 TONNELE AVE; (2 FL),JERSEY CITY,40.73738861,-74.06584167,1,S5HPNTSCZA
16-000504,E,1/1/16 5:32,1,1/1/16 5:34,1/1/01 0:00,B23.00,OTHER INTER/CONFLICT; TIME ELAPSED NOT APPLICABLE; INJURY NOT APPLICABLE,911,5,E301,TRUE,77 HUDSON ST;  ,JERSEY CITY,40.71281052,-74.03491211,1,S5HPNTSCZA
16-000510,E,1/1/16 5:37,1,1/1/16 5:42,1/1/16 5:53,A12.20,ASSAULT NO WEAPON; IN PROGRESS AND/OR ACTOR ON SCENE; INJURY NOT APPLICABLE,911,2,E101,TRUE,CHRISTOPHER COLUMBUS (CHRISTOPHER COLUMBUS DR) & WARREN ST;  ,JERSEY CITY,40.71821976,-74.03884888,1,SX
16-000517,E,1/1/16 5:41,1,1/1/16 5:42,1/1/16 5:47,D11.00,MOTOR VEHICLE ACCIDENT; TIME ELAPSED NOT APPLICABLE; INJURY NOT APPLICABLE,PH,3,CBCI,FALSE,GRAND ST & MERSELES ST;  ,JERSEY CITY,40.71738052,-74.05635834,1,SX
16-000517,E,1/1/16 5:41,1,1/1/16 5:42,1/1/16 5:47,D11.00,MOTOR VEHICLE ACCIDENT; TIME ELAPSED NOT APPLICABLE; INJURY NOT APPLICABLE,PH,3,E401,TRUE,GRAND ST & MERSELES ST;  ,JERSEY CITY,40.71738052,-74.05635834,1,SX
16-000521,W,1/1/16 5:45,1,1/1/16 5:47,1/1/16 6:12,A22.00,ROB PERSON; TIME ELAPSED NOT APPLICABLE; INJURY NOT APPLICABLE,PH,5,W401,TRUE,65 VAN REYPEN ST;  ,JERSEY CITY,40.7295723,-74.06797791,1,S5HPNTSCZA
16-000529,S,1/1/16 5:57,1,1/1/16 5:58,1/1/16 5:57,J24.00,DIRECTED PATROL; TIME ELAPSED NOT APPLICABLE; INJURY NOT APPLICABLE,SI,9,S201,TRUE,83 BERGEN AVE;  ,JERSEY CITY,40.7061882,-74.0871582,1,S5HPNTSCZA
16-000530,W,1/1/16 5:57,1,1/1/16 6:00,1/1/16 6:10,D11.00,MOTOR VEHICLE ACCIDENT; TIME ELAPSED NOT APPLICABLE; INJURY NOT APPLICABLE,911,3,W101,FALSE,COMMUNIPAW AVE & KENNEDY BLVD;  ,JERSEY CITY,40.7193985,-74.07778168,2,SX
16-000530,W,1/1/16 5:57,1,1/1/16 6:00,1/1/16 6:10,D11.00,MOTOR VEHICLE ACCIDENT; TIME ELAPSED NOT APPLICABLE; INJURY NOT APPLICABLE,911,3,W601,TRUE,COMMUNIPAW AVE & KENNEDY BLVD;  ,JERSEY CITY,40.7193985,-74.07778168,2,SX
16-000532,E,1/1/16 5:59,1,1/1/16 6:00,1/1/16 6:00,J26.00,OTHER ADMIN POLICE ACTIVITY; TIME ELAPSED NOT APPLICABLE; INJURY NOT APPLICABLE,SI,9,E301,TRUE,207 7TH ST;  ,JERSEY CITY,40.72590637,-74.04273987,1,S5HPNTSCZA
16-000535,E,1/1/16 6:01,1,1/1/16 6:02,1/1/16 6:08,C31.00,BURG ALARM COMMERCIAL PROP; TIME ELAPSED NOT APPLICABLE; INJURY NOT APPLICABLE,PH,4,E101,TRUE,400 MARIN BLVD;  ,JERSEY CITY,40.72330475,-74.0406189,1,S5HPNTSC-A
16-000539,N,1/1/16 6:05,1,1/1/16 6:08,1/1/16 6:22,D11.00,MOTOR VEHICLE ACCIDENT; TIME ELAPSED NOT APPLICABLE; INJURY NOT APPLICABLE,911,3,N401,TRUE,TONNELE CIR (TONNELE CIRCLE) & TONNELE AVE;  ,JERSEY CITY,0,0,0,NOT FOUND
16-000543,S,1/1/16 6:07,1,1/1/16 6:09,1/1/01 0:00,F16.02,SUSPICIOUS PERSON/CONDITION; TIME ELAPSED NOT APPLICABLE; ATTEMPT TO CAUSE INJURY,PH,2,S201,TRUE,40 ARLINGTON AVE;  ,JERSEY CITY,40.70388412,-74.07782745,1,S5HPNTSCZA
16-000544,E,1/1/16 6:08,1,1/1/16 6:11,1/1/16 6:28,A12.20,ASSAULT NO WEAPON; IN PROGRESS AND/OR ACTOR ON SCENE; INJURY NOT APPLICABLE,911,2,E101,TRUE,50 CHRISTOPHER COLUMBUS DR;  ,JERSEY CITY,40.71721268,-74.0346756,1,S5HPNTSC-A
16-000545,N,1/1/16 6:09,1,1/1/16 6:11,1/1/16 6:19,B23.00,OTHER INTER/CONFLICT; TIME ELAPSED NOT APPLICABLE; INJURY NOT APPLICABLE,911,5,N201,TRUE,74 LINCOLN ST;  ,JERSEY CITY,40.74798203,-74.05226135,1,S5HPNTSCZA
16-000545,N,1/1/16 6:09,1,1/1/16 6:11,1/1/16 6:19,B23.00,OTHER INTER/CONFLICT; TIME ELAPSED NOT APPLICABLE; INJURY NOT APPLICABLE,911,5,N101,FALSE,74 LINCOLN ST;  ,JERSEY CITY,40.74798203,-74.05226135,1,S5HPNTSCZA
16-000546,N,1/1/16 6:09,1,1/1/16 6:10,1/1/16 6:10,J26.00,OTHER ADMIN POLICE ACTIVITY; TIME ELAPSED NOT APPLICABLE; INJURY NOT APPLICABLE,SI,9,N601,TRUE,282 CENTRAL AVE;  ,JERSEY CITY,40.74448395,-74.05031586,1,S5HPNTSCZA
16-000556,E,1/1/16 6:21,1,1/1/16 6:23,1/1/01 0:00,E16.00,INTOXICATED PERSON; TIME ELAPSED NOT APPLICABLE; INJURY NOT APPLICABLE,PH,7,E201,FALSE,30 HUDSON ST;  ,JERSEY CITY,40.71323013,-74.03474426,1,S5HPNTSCZA
16-000556,E,1/1/16 6:21,1,1/1/16 6:23,1/1/01 0:00,E16.00,INTOXICATED PERSON; TIME ELAPSED NOT APPLICABLE; INJURY NOT APPLICABLE,PH,7,E402,TRUE,30 HUDSON ST;  ,JERSEY CITY,40.71323013,-74.03474426,1,S5HPNTSCZA
16-000562,E,1/1/16 6:30,1,1/1/16 6:31,1/1/16 6:39,D11.02,MOTOR VEHICLE ACCIDENT; TIME ELAPSED NOT APPLICABLE; ATTEMPT TO CAUSE INJURY,911,2,CE1M,FALSE,ERIE ST & 2ND ST;  ,JERSEY CITY,40.72249985,-74.04418182,1,SX
16-000562,E,1/1/16 6:30,1,1/1/16 6:31,1/1/16 6:39,D11.02,MOTOR VEHICLE ACCIDENT; TIME ELAPSED NOT APPLICABLE; ATTEMPT TO CAUSE INJURY,911,2,N601,FALSE,ERIE ST & 2ND ST;  ,JERSEY CITY,40.72249985,-74.04418182,1,SX
16-000562,E,1/1/16 6:30,1,1/1/16 6:31,1/1/16 6:39,D11.02,MOTOR VEHICLE ACCIDENT; TIME ELAPSED NOT APPLICABLE; ATTEMPT TO CAUSE INJURY,911,2,E102,FALSE,ERIE ST & 2ND ST;  ,JERSEY CITY,40.72249985,-74.04418182,1,SX
16-000562,E,1/1/16 6:30,1,1/1/16 6:31,1/1/16 6:39,D11.02,MOTOR VEHICLE ACCIDENT; TIME ELAPSED NOT APPLICABLE; ATTEMPT TO CAUSE INJURY,911,2,CE2M,FALSE,ERIE ST & 2ND ST;  ,JERSEY CITY,40.72249985,-74.04418182,1,SX
16-000562,E,1/1/16 6:30,1,1/1/16 6:31,1/1/16 6:39,D11.02,MOTOR VEHICLE ACCIDENT; TIME ELAPSED NOT APPLICABLE; ATTEMPT TO CAUSE INJURY,911,2,N102,FALSE,ERIE ST & 2ND ST;  ,JERSEY CITY,40.72249985,-74.04418182,1,SX
16-000562,E,1/1/16 6:30,1,1/1/16 6:31,1/1/16 6:39,D11.02,MOTOR VEHICLE ACCIDENT; TIME ELAPSED NOT APPLICABLE; ATTEMPT TO CAUSE INJURY,911,2,W102,FALSE,ERIE ST & 2ND ST;  ,JERSEY CITY,40.72249985,-74.04418182,1,SX
16-000562,E,1/1/16 6:30,1,1/1/16 6:31,1/1/16 6:39,D11.02,MOTOR VEHICLE ACCIDENT; TIME ELAPSED NOT APPLICABLE; ATTEMPT TO CAUSE INJURY,911,2,N302,FALSE,ERIE ST & 2ND ST;  ,JERSEY CITY,40.72249985,-74.04418182,1,SX
16-000562,E,1/1/16 6:30,1,1/1/16 6:31,1/1/16 6:39,D11.02,MOTOR VEHICLE ACCIDENT; TIME ELAPSED NOT APPLICABLE; ATTEMPT TO CAUSE INJURY,911,2,E601,FALSE,ERIE ST & 2ND ST;  ,JERSEY CITY,40.72249985,-74.04418182,1,SX
16-000562,E,1/1/16 6:30,1,1/1/16 6:31,1/1/16 6:39,D11.02,MOTOR VEHICLE ACCIDENT; TIME ELAPSED NOT APPLICABLE; ATTEMPT TO CAUSE INJURY,911,2,E501,FALSE,ERIE ST & 2ND ST;  ,JERSEY CITY,40.72249985,-74.04418182,1,SX
16-000562,E,1/1/16 6:30,1,1/1/16 6:31,1/1/16 6:39,D11.02,MOTOR VEHICLE ACCIDENT; TIME ELAPSED NOT APPLICABLE; ATTEMPT TO CAUSE INJURY,911,2,E201,TRUE,ERIE ST & 2ND ST;  ,JERSEY CITY,40.72249985,-74.04418182,1,SX
16-000562,E,1/1/16 6:30,1,1/1/16 6:31,1/1/16 6:39,D11.02,MOTOR VEHICLE ACCIDENT; TIME ELAPSED NOT APPLICABLE; ATTEMPT TO CAUSE INJURY,911,2,E101,FALSE,ERIE ST & 2ND ST;  ,JERSEY CITY,40.72249985,-74.04418182,1,SX
16-000564,E,1/1/16 6:31,1,1/1/16 6:33,1/1/01 0:00,D11.00,MOTOR VEHICLE ACCIDENT; TIME ELAPSED NOT APPLICABLE; INJURY NOT APPLICABLE,911,3,E402,TRUE,150 BAY ST;  ,JERSEY CITY,40.72073746,-74.03981018,1,S5HPNTSCZA
16-000569,W,1/1/16 6:39,1,1/1/16 6:40,1/1/01 0:00,E13.00,LOUD MUSIC; TIME ELAPSED NOT APPLICABLE; INJURY NOT APPLICABLE,PH,7,W201,TRUE,109 STORMS AVE;  ,JERSEY CITY,40.72403717,-74.06839752,1,S5HPNTSCZA
16-000576,S,1/1/16 6:46,1,1/1/16 6:47,1/1/16 6:47,J26.00,OTHER ADMIN POLICE ACTIVITY; TIME ELAPSED NOT APPLICABLE; INJURY NOT APPLICABLE,SI,9,S201,TRUE,191 BERGEN AVE;  ,JERSEY CITY,40.70915985,-74.08473969,1,S5HPNTSCZA
16-000578,N,1/1/16 6:56,1,1/1/16 6:59,1/1/16 7:10,C31.00,BURG ALARM COMMERCIAL PROP; TIME ELAPSED NOT APPLICABLE; INJURY NOT APPLICABLE,PH,4,N201,TRUE,3495 JFK (KENNEDY BLVD);  ,JERSEY CITY,40.75138092,-74.05387878,1,S5HPNTSC-A
16-000584,S,1/1/16 7:10,2,1/1/16 7:12,1/1/16 7:11,J26.00,OTHER ADMIN POLICE ACTIVITY; TIME ELAPSED NOT APPLICABLE; INJURY NOT APPLICABLE,SI,9,S401,TRUE,191 BERGEN AVE;  ,JERSEY CITY,40.70915985,-74.08473969,1,S5HPNTSCZA
16-000587,N,1/1/16 7:12,2,1/1/16 7:15,1/1/01 0:00,E11.20,DISORDERLY CONDUCT; IN PROGRESS AND/OR ACTOR ON SCENE; INJURY NOT APPLICABLE,PH,4,N102,TRUE,176 PALISADE AVE;  ,JERSEY CITY,40.73471832,-74.05014801,1,S5HPNTSCZA
16-000594,E,1/1/16 7:25,2,1/1/16 7:26,1/1/16 7:28,F18.00,GUNSHOTS FIRED HEARD ( NO WITNESS / VICTIM ); TIME ELAPSED NOT APPLICABLE; INJURY NOT APPLICABLE,911,2,E502,FALSE,3RD ST & MONMOUTH ST;  ,JERSEY CITY,40.72365952,-74.04911041,1,SX
16-000594,E,1/1/16 7:25,2,1/1/16 7:26,1/1/16 7:28,F18.00,GUNSHOTS FIRED HEARD ( NO WITNESS / VICTIM ); TIME ELAPSED NOT APPLICABLE; INJURY NOT APPLICABLE,911,2,E102,TRUE,3RD ST & MONMOUTH ST;  ,JERSEY CITY,40.72365952,-74.04911041,1,SX
16-000598,S,1/1/16 7:27,2,1/1/16 7:28,1/1/16 7:28,J26.00,OTHER ADMIN POLICE ACTIVITY; TIME ELAPSED NOT APPLICABLE; INJURY NOT APPLICABLE,SI,9,S502,TRUE,191 BERGEN AVE;  ,JERSEY CITY,40.70915985,-74.08473969,1,S5HPNTSCZA
16-000600,N,1/1/16 7:29,2,1/1/16 7:30,1/1/16 8:12,D24.00,OTHER PARKING VIOLATION; TIME ELAPSED NOT APPLICABLE; INJURY NOT APPLICABLE,PH,7,N502,TRUE,58 TERRACE AVE;  ,JERSEY CITY,40.74819946,-74.05908203,1,S5HPNTSCZA
16-000602,W,1/1/16 7:30,2,1/1/16 7:33,1/1/16 7:38,B23.00,OTHER INTER/CONFLICT; TIME ELAPSED NOT APPLICABLE; INJURY NOT APPLICABLE,911,3,W502,TRUE,150 BELMONT AVE; (3 FL),JERSEY CITY,40.72132874,-74.07359314,1,S5HPNTSCZA
16-000602,W,1/1/16 7:30,2,1/1/16 7:33,1/1/16 7:38,B23.00,OTHER INTER/CONFLICT; TIME ELAPSED NOT APPLICABLE; INJURY NOT APPLICABLE,911,3,W302,FALSE,150 BELMONT AVE; (3 FL),JERSEY CITY,40.72132874,-74.07359314,1,S5HPNTSCZA
16-000605,N,1/1/16 7:33,2,1/1/16 7:35,1/1/16 8:45,D15.00,LEAVING THE SCENE OF A ACCIDENT ( PROPERTY DAMAGE ONLY ); TIME ELAPSED NOT APPLICABLE; INJURY NOT APPLICABLE,911,6,N402,TRUE,FLEET ST & CONCORD ST;  ,JERSEY CITY,40.73337173,-74.0525589,1,SX
16-000607,E,1/1/16 7:34,2,1/1/16 7:37,1/1/16 14:56,F16.00,SUSPICIOUS PERSON/CONDITION; TIME ELAPSED NOT APPLICABLE; INJURY NOT APPLICABLE,PH,3,E402,FALSE,MONMOUTH ST & 3RD ST;  ,JERSEY CITY,40.72365952,-74.04911041,1,SX
16-000607,E,1/1/16 7:34,2,1/1/16 7:37,1/1/16 14:56,F16.00,SUSPICIOUS PERSON/CONDITION; TIME ELAPSED NOT APPLICABLE; INJURY NOT APPLICABLE,PH,3,E602,FALSE,MONMOUTH ST & 3RD ST;  ,JERSEY CITY,40.72365952,-74.04911041,1,SX
16-000607,E,1/1/16 7:34,2,1/1/16 7:37,1/1/16 14:56,F16.00,SUSPICIOUS PERSON/CONDITION; TIME ELAPSED NOT APPLICABLE; INJURY NOT APPLICABLE,PH,3,E202,TRUE,MONMOUTH ST & 3RD ST;  ,JERSEY CITY,40.72365952,-74.04911041,1,SX
16-000614,W,1/1/16 7:47,2,1/1/16 7:50,1/1/16 7:47,B23.00,OTHER INTER/CONFLICT; TIME ELAPSED NOT APPLICABLE; INJURY NOT APPLICABLE,SI,5,W302,TRUE,BERGEN AVE & MONTGOMERY ST;  ,JERSEY CITY,40.72528076,-74.06809235,1,SX
16-000620,W,1/1/16 7:53,2,1/1/16 7:54,1/1/01 0:00,C31.00,BURG ALARM COMMERCIAL PROP; TIME ELAPSED NOT APPLICABLE; INJURY NOT APPLICABLE,PH,4,W502,TRUE,585 ST HWY 440;  ,JERSEY CITY,40.71630859,-74.09573364,2,S5HPNTSC-A
16-000621,E,1/1/16 7:56,2,1/1/16 8:01,1/1/01 0:00,H13.00,AMBULANCE REQUEST FOR; TIME ELAPSED NOT APPLICABLE; INJURY NOT APPLICABLE,911,3,ECRT28,TRUE,JERSEY AVE & 1ST ST;  ,JERSEY CITY,40.72193146,-74.0459671,1,SX
16-000623,W,1/1/16 8:02,2,1/1/16 8:04,1/1/01 0:00,A12.30,ASSAULT NO WEAPON; PERSON CRIME OCCURRED WITHIN 10 MINUTES; INJURY NOT APPLICABLE,PH,3,W502,FALSE,553 WEST SIDE AVE;  ,JERSEY CITY,40.71987152,-74.08227539,1,S5HPNTSC-A
16-000623,W,1/1/16 8:02,2,1/1/16 8:04,1/1/01 0:00,A12.30,ASSAULT NO WEAPON; PERSON CRIME OCCURRED WITHIN 10 MINUTES; INJURY NOT APPLICABLE,PH,3,W302,TRUE,553 WEST SIDE AVE;  ,JERSEY CITY,40.71987152,-74.08227539,1,S5HPNTSC-A
16-000629,N,1/1/16 8:10,2,1/1/16 8:10,1/1/16 8:10,F16.00,SUSPICIOUS PERSON/CONDITION; TIME ELAPSED NOT APPLICABLE; INJURY NOT APPLICABLE,SI,3,N602,TRUE,BOWERS ST & SUMMIT AVE;  ,JERSEY CITY,40.74821854,-74.05090332,1,SX
16-000629,N,1/1/16 8:10,2,1/1/16 8:10,1/1/16 8:10,F16.00,SUSPICIOUS PERSON/CONDITION; TIME ELAPSED NOT APPLICABLE; INJURY NOT APPLICABLE,SI,3,N202,FALSE,BOWERS ST & SUMMIT AVE;  ,JERSEY CITY,40.74821854,-74.05090332,1,SX
16-000631,S,1/1/16 8:15,2,1/1/16 8:17,1/1/01 0:00,E21.00,OTHER PUBLIC NUISANCE; TIME ELAPSED NOT APPLICABLE; INJURY NOT APPLICABLE,PH,7,S302,TRUE,27 GRANT AVE;  ,JERSEY CITY,40.70775986,-74.07879639,1,S5HPNTSCZA
16-000633,N,1/1/16 8:16,2,1/1/16 8:20,1/1/16 8:29,F16.00,SUSPICIOUS PERSON/CONDITION; TIME ELAPSED NOT APPLICABLE; INJURY NOT APPLICABLE,PH,3,N202,FALSE,57 HAGUE ST; 3  ,JERSEY CITY,40.75649261,-74.04598999,1,S5HPNTSCZA
16-000633,N,1/1/16 8:16,2,1/1/16 8:20,1/1/16 8:29,F16.00,SUSPICIOUS PERSON/CONDITION; TIME ELAPSED NOT APPLICABLE; INJURY NOT APPLICABLE,PH,3,NSGT,FALSE,57 HAGUE ST; 3  ,JERSEY CITY,40.75649261,-74.04598999,1,S5HPNTSCZA
16-000633,N,1/1/16 8:16,2,1/1/16 8:20,1/1/16 8:29,F16.00,SUSPICIOUS PERSON/CONDITION; TIME ELAPSED NOT APPLICABLE; INJURY NOT APPLICABLE,PH,3,N602,TRUE,57 HAGUE ST; 3  ,JERSEY CITY,40.75649261,-74.04598999,1,S5HPNTSCZA
16-000634,S,1/1/16 8:17,2,1/1/16 8:20,1/1/16 8:45,A12.22,ASSAULT NO WEAPON; IN PROGRESS AND/OR ACTOR ON SCENE; ATTEMPT TO CAUSE INJURY,911,1,SSGT,FALSE,31 BAYSIDE TER; (2 FL),JERSEY CITY,40.69906235,-74.08030701,1,S5HPNTSCZA
16-000634,S,1/1/16 8:17,2,1/1/16 8:20,1/1/16 8:45,A12.22,ASSAULT NO WEAPON; IN PROGRESS AND/OR ACTOR ON SCENE; ATTEMPT TO CAUSE INJURY,911,1,CEMSG,FALSE,31 BAYSIDE TER; (2 FL),JERSEY CITY,40.69906235,-74.08030701,1,S5HPNTSCZA
16-000634,S,1/1/16 8:17,2,1/1/16 8:20,1/1/16 8:45,A12.22,ASSAULT NO WEAPON; IN PROGRESS AND/OR ACTOR ON SCENE; ATTEMPT TO CAUSE INJURY,911,1,CE4D,FALSE,31 BAYSIDE TER; (2 FL),JERSEY CITY,40.69906235,-74.08030701,1,S5HPNTSCZA
16-000634,S,1/1/16 8:17,2,1/1/16 8:20,1/1/16 8:45,A12.22,ASSAULT NO WEAPON; IN PROGRESS AND/OR ACTOR ON SCENE; ATTEMPT TO CAUSE INJURY,911,1,S302,FALSE,31 BAYSIDE TER; (2 FL),JERSEY CITY,40.69906235,-74.08030701,1,S5HPNTSCZA
16-000634,S,1/1/16 8:17,2,1/1/16 8:20,1/1/16 8:45,A12.22,ASSAULT NO WEAPON; IN PROGRESS AND/OR ACTOR ON SCENE; ATTEMPT TO CAUSE INJURY,911,1,S102,TRUE,31 BAYSIDE TER; (2 FL),JERSEY CITY,40.69906235,-74.08030701,1,S5HPNTSCZA
16-000642,W,1/1/16 8:44,2,1/1/16 8:47,1/1/01 0:00,C31.00,BURG ALARM COMMERCIAL PROP; TIME ELAPSED NOT APPLICABLE; INJURY NOT APPLICABLE,PH,4,W402,TRUE,823 COMMUNIPAW AVE;  ,JERSEY CITY,40.72114182,-74.08218384,1,S5HPNTSCZA
16-000643,W,1/1/16 8:46,2,1/1/16 8:47,1/1/16 8:46,J29.00,OFF ON INVESTIGATION; TIME ELAPSED NOT APPLICABLE; INJURY NOT APPLICABLE,SI,9,W502,FALSE,BERGEN AVE & SIP AVE;  ,JERSEY CITY,40.73083878,-74.06433868,1,SX
16-000643,W,1/1/16 8:46,2,1/1/16 8:47,1/1/16 8:46,J29.00,OFF ON INVESTIGATION; TIME ELAPSED NOT APPLICABLE; INJURY NOT APPLICABLE,SI,9,W202,FALSE,BERGEN AVE & SIP AVE;  ,JERSEY CITY,40.73083878,-74.06433868,1,SX
16-000643,W,1/1/16 8:46,2,1/1/16 8:47,1/1/16 8:46,J29.00,OFF ON INVESTIGATION; TIME ELAPSED NOT APPLICABLE; INJURY NOT APPLICABLE,SI,9,W302,TRUE,BERGEN AVE & SIP AVE;  ,JERSEY CITY,40.73083878,-74.06433868,1,SX
16-000645,N,1/1/16 8:54,2,1/1/16 8:56,1/1/01 0:00,D29.00,DISABLED VEHICLE; TIME ELAPSED NOT APPLICABLE; INJURY NOT APPLICABLE,PH,7,N502,TRUE,100 DEPRESSED HWY WEST (UNDERPASS WESTBOUND);  ,JERSEY CITY,0,0,0,NOT FOUND
16-000648,W,1/1/16 9:04,2,1/1/16 9:05,1/1/01 0:00,Z33.00,RING BACK; TIME ELAPSED NOT APPLICABLE; INJURY NOT APPLICABLE,911,9,W202,TRUE,40 GLENWOOD AVE; 1A  ,JERSEY CITY,40.72690582,-74.0691452,1,S5HPNTSCZA
16-000651,E,1/1/16 9:18,2,1/1/16 9:20,1/1/01 0:00,C29.00,BURG ALARM RESIDENTIAL PROP; TIME ELAPSED NOT APPLICABLE; INJURY NOT APPLICABLE,PH,4,E402,TRUE,465 WASHINGTON BLVD; 3906-S  ,JERSEY CITY,40.72438812,-74.036026,1,S5HPNTSCZA
16-000657,E,1/1/16 9:43,2,1/1/16 9:45,1/1/01 0:00,F19.00,PERSON SCREAMING / CALLING FOR HELP; TIME ELAPSED NOT APPLICABLE; INJURY NOT APPLICABLE,911,2,E402,FALSE,455 WASHINGTON BLVD; 712  ,JERSEY CITY,40.72362137,-74.03627014,1,S5HPNTSCZA
16-000657,E,1/1/16 9:43,2,1/1/16 9:45,1/1/01 0:00,F19.00,PERSON SCREAMING / CALLING FOR HELP; TIME ELAPSED NOT APPLICABLE; INJURY NOT APPLICABLE,911,2,E302,TRUE,455 WASHINGTON BLVD; 712  ,JERSEY CITY,40.72362137,-74.03627014,1,S5HPNTSCZA
16-000661,S,1/1/16 9:53,2,1/1/16 9:55,1/1/16 10:34,D23.00,DRIVEWAY PARKING VIOLATION; TIME ELAPSED NOT APPLICABLE; INJURY NOT APPLICABLE,PH,5,W502,TRUE,62 GREENVILLE AVE;  ,JERSEY CITY,40.69809341,-74.09501648,1,S5HPNTSCZA
16-000663,N,1/1/16 9:59,2,1/1/16 10:01,1/1/16 10:00,D24.00,OTHER PARKING VIOLATION; TIME ELAPSED NOT APPLICABLE; INJURY NOT APPLICABLE,SI,7,N602,TRUE,PAVONIA AVE & NEWARK AVE;  ,JERSEY CITY,40.72874832,-74.0548172,1,SX
16-000664,N,1/1/16 10:01,2,1/1/16 10:06,1/1/16 10:28,C24.00,THEFT OTHER PROP; TIME ELAPSED NOT APPLICABLE; INJURY NOT APPLICABLE,911,3,N202,TRUE,16 JOURNAL SQ;  ,JERSEY CITY,40.73097229,-74.06441498,1,S5HPNTSCZA
16-000674,N,1/1/16 10:22,2,1/1/16 10:22,1/1/16 10:22,J24.00,DIRECTED PATROL; TIME ELAPSED NOT APPLICABLE; INJURY NOT APPLICABLE,SI,9,N302,TRUE,LIBERTY AVE & SPRUCE ST;  ,JERSEY CITY,40.74217987,-74.06228638,1,SX
16-000675,W,1/1/16 10:26,2,1/1/16 10:32,1/1/16 10:38,F16.00,SUSPICIOUS PERSON/CONDITION; TIME ELAPSED NOT APPLICABLE; INJURY NOT APPLICABLE,911,2,W102,TRUE,553 WEST SIDE AVE;  ,JERSEY CITY,40.71987152,-74.08227539,1,S5HPNTSC-A
16-000677,S,1/1/16 10:29,2,1/1/16 10:31,1/1/01 0:00,D23.00,DRIVEWAY PARKING VIOLATION; TIME ELAPSED NOT APPLICABLE; INJURY NOT APPLICABLE,PH,7,W502,TRUE,16 WOODLAWN AVE;  ,JERSEY CITY,40.69966507,-74.08163452,1,S5HPNTSCZA
16-000678,W,1/1/16 10:34,2,1/1/16 10:36,1/1/01 0:00,D23.00,DRIVEWAY PARKING VIOLATION; TIME ELAPSED NOT APPLICABLE; INJURY NOT APPLICABLE,PH,7,W202,TRUE,69 LEXINGTON AVE;  ,JERSEY CITY,40.71840286,-74.0802536,1,S5HPNTSCZA
16-000680,N,1/1/16 10:41,2,1/1/16 10:42,1/1/01 0:00,C31.00,BURG ALARM COMMERCIAL PROP; TIME ELAPSED NOT APPLICABLE; INJURY NOT APPLICABLE,PH,4,N502,TRUE,116 TONNELE AVE;  ,JERSEY CITY,40.73489761,-74.0670166,1,S5HPNTSCZA
16-000687,S,1/1/16 11:20,2,1/1/16 11:22,1/1/01 0:00,D23.00,DRIVEWAY PARKING VIOLATION; TIME ELAPSED NOT APPLICABLE; INJURY NOT APPLICABLE,PH,7,W302,TRUE,252 PRINCETON AVE;  ,JERSEY CITY,40.6897316,-74.09154511,1,S5HPNTSCZA
16-000688,N,1/1/16 11:21,2,1/1/16 11:22,1/1/16 11:22,J14.00,MEAL; TIME ELAPSED NOT APPLICABLE; INJURY NOT APPLICABLE,SI,9,N102,TRUE,282 CENTRAL AVE;  ,JERSEY CITY,40.74448395,-74.05031586,1,S5HPNTSCZA
16-000691,N,1/1/16 11:25,2,1/1/16 11:25,1/1/16 11:25,J11.00,VEHICLE SERVICE SHOP; TIME ELAPSED NOT APPLICABLE; INJURY NOT APPLICABLE,SI,9,N302,TRUE,15 E LINDEN AVE;  ,JERSEY CITY,40.69113922,-74.08826447,1,S5HPNTSC-A
16-000693,N,1/1/16 11:32,2,1/1/16 11:35,1/1/01 0:00,C31.00,BURG ALARM COMMERCIAL PROP; TIME ELAPSED NOT APPLICABLE; INJURY NOT APPLICABLE,PH,4,N202,TRUE,515 NEWARK AVE;  ,JERSEY CITY,40.7301178,-74.05549622,1,S5HPNTSCZA
16-000694,W,1/1/16 11:37,2,1/1/16 11:42,1/1/16 11:51,A12.20,ASSAULT NO WEAPON; IN PROGRESS AND/OR ACTOR ON SCENE; INJURY NOT APPLICABLE,911,2,W402,TRUE,99 MALLORY AVE; (1 FL),JERSEY CITY,40.717659,-74.08995819,1,S5HPNTSCZA
16-000694,W,1/1/16 11:37,2,1/1/16 11:42,1/1/16 11:51,A12.20,ASSAULT NO WEAPON; IN PROGRESS AND/OR ACTOR ON SCENE; INJURY NOT APPLICABLE,911,2,W102,FALSE,99 MALLORY AVE; (1 FL),JERSEY CITY,40.717659,-74.08995819,1,S5HPNTSCZA
16-000698,S,1/1/16 11:48,2,1/1/16 11:50,1/1/16 11:59,D15.00,LEAVING THE SCENE OF A ACCIDENT ( PROPERTY DAMAGE ONLY ); TIME ELAPSED NOT APPLICABLE; INJURY NOT APPLICABLE,PH,6,S602,TRUE,12 PINECREST RD;  ,JERSEY CITY,40.70098495,-74.10132599,1,S5HPNTSCZA
16-000700,N,1/1/16 12:01,2,1/1/16 12:06,1/1/01 0:00,H32.00,CHECK WELFARE OF; TIME ELAPSED NOT APPLICABLE; INJURY NOT APPLICABLE,PH,2,N102,TRUE,3060 KENNEDY BLVD; 13D  ,JERSEY CITY,40.7377739,-74.06256866,1,S5HPNTSC-A
16-000703,N,1/1/16 12:07,2,1/1/16 12:08,1/1/16 12:08,J14.00,MEAL; TIME ELAPSED NOT APPLICABLE; INJURY NOT APPLICABLE,SI,9,N302,TRUE,282 CENTRAL AVE;  ,JERSEY CITY,40.74448395,-74.05031586,1,S5HPNTSCZA
16-000704,W,1/1/16 12:10,2,1/1/16 12:10,1/1/16 12:10,J14.00,MEAL; TIME ELAPSED NOT APPLICABLE; INJURY NOT APPLICABLE,SI,9,WSALF12,TRUE,282 CENTRAL AVE;  ,JERSEY CITY,40.74448395,-74.05031586,1,S5HPNTSCZA
16-000705,N,1/1/16 12:22,2,1/1/16 12:24,1/1/01 0:00,H32.00,CHECK WELFARE OF; TIME ELAPSED NOT APPLICABLE; INJURY NOT APPLICABLE,PH,2,N402,TRUE,463 OGDEN AVE;  ,JERSEY CITY,40.74919128,-74.04006195,1,S5HPNTSCZA
16-000712,N,1/1/16 12:32,2,1/1/16 12:33,1/1/16 12:32,J14.00,MEAL; TIME ELAPSED NOT APPLICABLE; INJURY NOT APPLICABLE,SI,9,N502,TRUE,282 CENTRAL AVE;  ,JERSEY CITY,40.74448395,-74.05031586,1,S5HPNTSCZA
16-000713,N,1/1/16 12:34,2,1/1/16 12:35,1/1/16 12:35,D11.00,MOTOR VEHICLE ACCIDENT; TIME ELAPSED NOT APPLICABLE; INJURY NOT APPLICABLE,SI,3,N202,FALSE,CENTRAL AVE & BLEECKER ST;  ,JERSEY CITY,40.7497406,-74.04679108,1,SX
16-000713,N,1/1/16 12:34,2,1/1/16 12:35,1/1/16 12:35,D11.00,MOTOR VEHICLE ACCIDENT; TIME ELAPSED NOT APPLICABLE; INJURY NOT APPLICABLE,SI,3,N302,TRUE,CENTRAL AVE & BLEECKER ST;  ,JERSEY CITY,40.7497406,-74.04679108,1,SX
16-000716,W,1/1/16 12:46,2,1/1/16 12:47,1/1/16 13:33,D11.00,MOTOR VEHICLE ACCIDENT; TIME ELAPSED NOT APPLICABLE; INJURY NOT APPLICABLE,911,3,W102,TRUE,BRAMHALL AVE & BERGEN AVE;  ,JERSEY CITY,40.71683121,-74.07781219,1,SX
16-000720,W,1/1/16 12:51,2,1/1/16 12:52,1/1/16 12:51,J26.00,OTHER ADMIN POLICE ACTIVITY; TIME ELAPSED NOT APPLICABLE; INJURY NOT APPLICABLE,SI,9,W402,FALSE,BRAMHALL AVE & GRAND ST;  ,JERSEY CITY,40.7142601,-74.07296753,1,SX
16-000720,W,1/1/16 12:51,2,1/1/16 12:52,1/1/16 12:51,J26.00,OTHER ADMIN POLICE ACTIVITY; TIME ELAPSED NOT APPLICABLE; INJURY NOT APPLICABLE,SI,9,W202,TRUE,BRAMHALL AVE & GRAND ST;  ,JERSEY CITY,40.7142601,-74.07296753,1,SX
16-000722,W,1/1/16 13:00,2,1/1/16 13:03,1/1/16 13:26,H13.00,AMBULANCE REQUEST FOR; TIME ELAPSED NOT APPLICABLE; INJURY NOT APPLICABLE,911,3,WSGT,FALSE,61 DALES AVE; 1114  ,JERSEY CITY,40.73599243,-74.07626343,1,S5HPNTSCZA
16-000722,W,1/1/16 13:00,2,1/1/16 13:03,1/1/16 13:26,H13.00,AMBULANCE REQUEST FOR; TIME ELAPSED NOT APPLICABLE; INJURY NOT APPLICABLE,911,3,E402,FALSE,61 DALES AVE; 1114  ,JERSEY CITY,40.73599243,-74.07626343,1,S5HPNTSCZA
16-000722,W,1/1/16 13:00,2,1/1/16 13:03,1/1/16 13:26,H13.00,AMBULANCE REQUEST FOR; TIME ELAPSED NOT APPLICABLE; INJURY NOT APPLICABLE,911,3,E302,FALSE,61 DALES AVE; 1114  ,JERSEY CITY,40.73599243,-74.07626343,1,S5HPNTSCZA
16-000722,W,1/1/16 13:00,2,1/1/16 13:03,1/1/16 13:26,H13.00,AMBULANCE REQUEST FOR; TIME ELAPSED NOT APPLICABLE; INJURY NOT APPLICABLE,911,3,CIC,FALSE,61 DALES AVE; 1114  ,JERSEY CITY,40.73599243,-74.07626343,1,S5HPNTSCZA
16-000722,W,1/1/16 13:00,2,1/1/16 13:03,1/1/16 13:26,H13.00,AMBULANCE REQUEST FOR; TIME ELAPSED NOT APPLICABLE; INJURY NOT APPLICABLE,911,3,CESUSGT,FALSE,61 DALES AVE; 1114  ,JERSEY CITY,40.73599243,-74.07626343,1,S5HPNTSCZA
16-000722,W,1/1/16 13:00,2,1/1/16 13:03,1/1/16 13:26,H13.00,AMBULANCE REQUEST FOR; TIME ELAPSED NOT APPLICABLE; INJURY NOT APPLICABLE,911,3,S602,FALSE,61 DALES AVE; 1114  ,JERSEY CITY,40.73599243,-74.07626343,1,S5HPNTSCZA
16-000722,W,1/1/16 13:00,2,1/1/16 13:03,1/1/16 13:26,H13.00,AMBULANCE REQUEST FOR; TIME ELAPSED NOT APPLICABLE; INJURY NOT APPLICABLE,911,3,CE4D,TRUE,61 DALES AVE; 1114  ,JERSEY CITY,40.73599243,-74.07626343,1,S5HPNTSCZA
16-000724,E,1/1/16 13:04,2,1/1/16 13:05,1/1/01 0:00,D15.00,LEAVING THE SCENE OF A ACCIDENT ( PROPERTY DAMAGE ONLY ); TIME ELAPSED NOT APPLICABLE; INJURY NOT APPLICABLE,PH,6,E502,TRUE,21 2ND ST;  ,JERSEY CITY,40.72134018,-74.03327179,1,S5HPNTSCZA
16-000725,N,1/1/16 13:08,2,1/1/16 13:09,1/1/01 0:00,D23.00,DRIVEWAY PARKING VIOLATION; TIME ELAPSED NOT APPLICABLE; INJURY NOT APPLICABLE,PH,7,N502,TRUE,242 CAMBRIDGE AVE;  ,JERSEY CITY,40.75111389,-74.0449295,1,S5HPNTSCZA
16-000726,N,1/1/16 13:12,2,1/1/16 13:12,1/1/16 13:12,J14.00,MEAL; TIME ELAPSED NOT APPLICABLE; INJURY NOT APPLICABLE,SI,9,N202,TRUE,282 CENTRAL AVE;  ,JERSEY CITY,40.74448395,-74.05031586,1,S5HPNTSCZA
16-000729,N,1/1/16 13:19,2,1/1/16 13:20,1/1/16 13:47,C14.00,DAMAGE MOTOR VEHICLE; TIME ELAPSED NOT APPLICABLE; INJURY NOT APPLICABLE,PH,6,N102,TRUE,125 FRANKLIN ST;  ,JERSEY CITY,40.74278641,-74.05020905,1,S5HPNTSCZA
16-000732,W,1/1/16 13:23,2,1/1/16 13:28,1/1/01 0:00,D23.00,DRIVEWAY PARKING VIOLATION; TIME ELAPSED NOT APPLICABLE; INJURY NOT APPLICABLE,PH,7,W103,TRUE,19 FOX PL;  ,JERSEY CITY,40.73392868,-74.07263184,1,S5HPNTSCZA
16-000736,E,1/1/16 13:30,2,1/1/16 13:32,1/1/01 0:00,C31.00,BURG ALARM COMMERCIAL PROP; TIME ELAPSED NOT APPLICABLE; INJURY NOT APPLICABLE,PH,4,E102,TRUE,550 GRAND ST;  ,JERSEY CITY,40.71773148,-74.05912781,1,S5HPNTSCZA
16-000737,E,1/1/16 13:32,2,1/1/16 13:35,1/1/01 0:00,H35.00,OTHER ASSISTANCE; TIME ELAPSED NOT APPLICABLE; INJURY NOT APPLICABLE,PH,6,E502,TRUE,120 SUSSEX ST;  ,JERSEY CITY,40.71476746,-74.03913879,1,S5HPNTSCZA
16-000742,N,1/1/16 13:44,2,1/1/16 13:45,1/1/16 13:44,J14.00,MEAL; TIME ELAPSED NOT APPLICABLE; INJURY NOT APPLICABLE,SI,9,N402,TRUE,282 CENTRAL AVE;  ,JERSEY CITY,40.74448395,-74.05031586,1,S5HPNTSCZA
16-000744,W,1/1/16 13:47,2,1/1/16 13:50,1/1/16 15:20,F16.00,SUSPICIOUS PERSON/CONDITION; TIME ELAPSED NOT APPLICABLE; INJURY NOT APPLICABLE,911,3,W503,FALSE,BERGEN AVE & REED ST;  ,JERSEY CITY,40.72338104,-74.07051849,1,SX
16-000744,W,1/1/16 13:47,2,1/1/16 13:50,1/1/16 15:20,F16.00,SUSPICIOUS PERSON/CONDITION; TIME ELAPSED NOT APPLICABLE; INJURY NOT APPLICABLE,911,3,W303,TRUE,BERGEN AVE & REED ST;  ,JERSEY CITY,40.72338104,-74.07051849,1,SX
16-000747,S,1/1/16 13:52,2,1/1/16 13:55,1/1/16 15:23,F16.00,SUSPICIOUS PERSON/CONDITION; TIME ELAPSED NOT APPLICABLE; INJURY NOT APPLICABLE,PH,5,S103,TRUE,379 OCEAN AVE;  ,JERSEY CITY,40.69970322,-74.08461761,1,S5HPNTSCZA
16-000756,W,1/1/16 14:13,2,1/1/16 14:14,1/1/16 15:27,G13.00,USE/SALE OF DRUGS; TIME ELAPSED NOT APPLICABLE; INJURY NOT APPLICABLE,PH,6,W503,TRUE,192 CLINTON AVE;  ,JERSEY CITY,40.71892166,-74.07865143,1,S5HPNTSCZA
16-000760,N,1/1/16 14:20,2,1/1/16 14:21,1/1/16 14:31,C22.00,THEFT PROP FROM VEHICLE; TIME ELAPSED NOT APPLICABLE; INJURY NOT APPLICABLE,PH,6,N202,TRUE,NELSON AVE & CONGRESS ST;  ,JERSEY CITY,40.7535286,-74.05226898,1,SX
16-000762,E,1/1/16 14:21,2,1/1/16 14:22,1/1/01 0:00,H13.22,AMBULANCE REQUEST FOR; IN PROGRESS AND/OR ACTOR ON SCENE; ATTEMPT TO CAUSE INJURY,911,1,E402,TRUE,351 VAN HORNE ST; PVT  ,JERSEY CITY,40.71578217,-74.05941772,1,S5HPNTSCZA
16-000762,E,1/1/16 14:21,2,1/1/16 14:22,1/1/01 0:00,H13.22,AMBULANCE REQUEST FOR; IN PROGRESS AND/OR ACTOR ON SCENE; ATTEMPT TO CAUSE INJURY,911,1,E102,FALSE,351 VAN HORNE ST; PVT  ,JERSEY CITY,40.71578217,-74.05941772,1,S5HPNTSCZA
16-000766,E,1/1/16 14:34,2,1/1/16 14:35,1/1/16 16:36,D24.00,OTHER PARKING VIOLATION; TIME ELAPSED NOT APPLICABLE; INJURY NOT APPLICABLE,PH,7,E303,TRUE,120 SUSSEX ST;  ,JERSEY CITY,40.71476746,-74.03913879,1,S5HPNTSCZA
16-000767,N,1/1/16 14:34,2,1/1/16 14:36,1/1/16 14:55,C31.00,BURG ALARM COMMERCIAL PROP; TIME ELAPSED NOT APPLICABLE; INJURY NOT APPLICABLE,PH,4,N402,TRUE,515 NEWARK AVE;  ,JERSEY CITY,40.7301178,-74.05549622,1,S5HPNTSCZA
16-000769,W,1/1/16 14:39,2,1/1/16 14:41,1/1/16 15:23,B12.00,INTERFERE W/ CUSTODY; TIME ELAPSED NOT APPLICABLE; INJURY NOT APPLICABLE,PH,2,W103,TRUE,17 PARK ST;  ,JERSEY CITY,40.7167511,-74.06916046,1,S5HPNTSCZA
16-000771,N,1/1/16 14:43,2,1/1/16 14:45,1/1/16 15:49,C31.00,BURG ALARM COMMERCIAL PROP; TIME ELAPSED NOT APPLICABLE; INJURY NOT APPLICABLE,PH,4,N103,TRUE,775 NEWARK AVE;  ,JERSEY CITY,40.73539734,-74.06399536,1,S5HPNTSCZA
16-000777,E,1/1/16 14:57,2,1/1/16 14:59,1/1/16 15:42,C12.00,DAMAGE RESIDENTIAL; TIME ELAPSED NOT APPLICABLE; INJURY NOT APPLICABLE,PH,6,E503,TRUE,70 BALDWIN AVE;  ,JERSEY CITY,40.7243042,-74.06369019,1,S5HPNTSCZA
16-000784,E,1/1/16 15:09,3,1/1/16 15:12,1/1/16 16:27,C31.00,BURG ALARM COMMERCIAL PROP; TIME ELAPSED NOT APPLICABLE; INJURY NOT APPLICABLE,PH,4,E103,TRUE,190 BALDWIN (BALDWIN AVE);  ,JERSEY CITY,40.72839355,-74.06053925,1,S5HPNTSCZA
16-000789,E,1/1/16 15:17,3,1/1/16 15:21,1/1/01 0:00,B19.20,PUBLIC ARGUMENT; IN PROGRESS AND/OR ACTOR ON SCENE; INJURY NOT APPLICABLE,PH,2,E103,TRUE,18TH ST & JERSEY AVE;  ,JERSEY CITY,40.73495102,-74.04398346,1,SX
16-000799,E,1/1/16 15:42,3,1/1/16 15:43,1/1/16 16:06,F16.00,SUSPICIOUS PERSON/CONDITION; TIME ELAPSED NOT APPLICABLE; INJURY NOT APPLICABLE,911,3,E303,TRUE,MONTGOMERY (MONTGOMERY ST) & BALDWIN AVE;  ,JERSEY CITY,40.7237587,-74.06419373,1,SX
16-000802,S,1/1/16 15:44,3,1/1/16 15:45,1/1/16 16:05,D23.00,DRIVEWAY PARKING VIOLATION; TIME ELAPSED NOT APPLICABLE; INJURY NOT APPLICABLE,PH,7,S103,FALSE,12 STEVENS AVE;  ,JERSEY CITY,40.69979477,-74.08535004,1,S5HPNTSCZA
16-000802,S,1/1/16 15:44,3,1/1/16 15:45,1/1/16 16:05,D23.00,DRIVEWAY PARKING VIOLATION; TIME ELAPSED NOT APPLICABLE; INJURY NOT APPLICABLE,PH,7,SSD1/2,TRUE,12 STEVENS AVE;  ,JERSEY CITY,40.69979477,-74.08535004,1,S5HPNTSCZA
16-000805,S,1/1/16 15:47,3,1/1/16 15:48,1/1/16 15:54,H21.00,UTILITY BREAK / INTERRUPTION; TIME ELAPSED NOT APPLICABLE; INJURY NOT APPLICABLE,911,6,S103,FALSE,WEST SIDE AVE & CULVER AVE;  ,JERSEY CITY,40.71305084,-74.090271,2,SX
16-000805,S,1/1/16 15:47,3,1/1/16 15:48,1/1/16 15:54,H21.00,UTILITY BREAK / INTERRUPTION; TIME ELAPSED NOT APPLICABLE; INJURY NOT APPLICABLE,911,6,S503,TRUE,WEST SIDE AVE & CULVER AVE;  ,JERSEY CITY,40.71305084,-74.090271,2,SX
16-000805,S,1/1/16 15:47,3,1/1/16 15:48,1/1/16 15:54,H21.00,UTILITY BREAK / INTERRUPTION; TIME ELAPSED NOT APPLICABLE; INJURY NOT APPLICABLE,911,6,S203,FALSE,WEST SIDE AVE & CULVER AVE;  ,JERSEY CITY,40.71305084,-74.090271,2,SX
16-000814,W,1/1/16 15:53,3,1/1/16 15:54,1/1/16 16:16,D11.00,MOTOR VEHICLE ACCIDENT; TIME ELAPSED NOT APPLICABLE; INJURY NOT APPLICABLE,911,3,W503,TRUE,701 RTE 440 (ST HWY 440);  ,JERSEY CITY,40.72200394,-74.09220123,2,S5HPNTSC-A
16-000817,W,1/1/16 15:57,3,1/1/16 15:59,1/1/01 0:00,F16.00,SUSPICIOUS PERSON/CONDITION; TIME ELAPSED NOT APPLICABLE; INJURY NOT APPLICABLE,PH,3,W203,TRUE,EGE AVE & WEST SIDE AVE;  ,JERSEY CITY,40.71598053,-74.08628082,2,SX
16-000819,N,1/1/16 16:07,3,1/1/16 16:09,1/1/16 16:21,B23.00,OTHER INTER/CONFLICT; TIME ELAPSED NOT APPLICABLE; INJURY NOT APPLICABLE,911,2,NLT,FALSE,65 HOPKINS AVE; (1R FL),JERSEY CITY,40.7355423,-74.05360413,1,S5HPNTSCZA
16-000819,N,1/1/16 16:07,3,1/1/16 16:09,1/1/16 16:21,B23.00,OTHER INTER/CONFLICT; TIME ELAPSED NOT APPLICABLE; INJURY NOT APPLICABLE,911,2,N303,TRUE,65 HOPKINS AVE; (1R FL),JERSEY CITY,40.7355423,-74.05360413,1,S5HPNTSCZA
16-000822,S,1/1/16 16:11,3,1/1/16 16:16,1/1/16 16:27,A12.00,ASSAULT NO WEAPON; TIME ELAPSED NOT APPLICABLE; INJURY NOT APPLICABLE,911,2,S403,TRUE,150 CATOR AVE; 6  ,JERSEY CITY,40.69763184,-74.0911026,1,S5HPNTSCZA
16-000823,S,1/1/16 16:15,3,1/1/16 16:17,1/1/16 16:57,D15.00,LEAVING THE SCENE OF A ACCIDENT ( PROPERTY DAMAGE ONLY ); TIME ELAPSED NOT APPLICABLE; INJURY NOT APPLICABLE,PH,6,S303,TRUE,180 PRINCETON AVE;  ,JERSEY CITY,40.68802643,-74.09371948,1,S5HPNTSCZA
16-000825,S,1/1/16 16:16,3,1/1/16 16:17,1/1/16 16:26,D23.00,DRIVEWAY PARKING VIOLATION; TIME ELAPSED NOT APPLICABLE; INJURY NOT APPLICABLE,PH,7,S603,TRUE,156 MC ADOO AVE (MCADOO AVE);  ,JERSEY CITY,40.70463181,-74.09473419,1,S5HPNTSCZA
16-000826,W,1/1/16 16:18,3,1/1/16 16:20,1/1/16 16:35,D23.00,DRIVEWAY PARKING VIOLATION; TIME ELAPSED NOT APPLICABLE; INJURY NOT APPLICABLE,PH,7,W403,TRUE,217 DELAWARE AVE;  ,JERSEY CITY,40.7280159,-74.07695007,1,S5HPNTSCZA
16-000828,E,1/1/16 16:22,3,1/1/16 16:23,1/1/16 16:22,J17.00,DISTRICT MISSION / ASSIGNMENT; TIME ELAPSED NOT APPLICABLE; INJURY NOT APPLICABLE,SI,9,E403,TRUE,207 7TH ST;  ,JERSEY CITY,40.72590637,-74.04273987,1,S5HPNTSCZA
16-000829,S,1/1/16 16:22,3,1/1/16 16:29,1/1/16 16:41,B14.20,HARASSMENT(VERBAL ABUSE); IN PROGRESS AND/OR ACTOR ON SCENE; INJURY NOT APPLICABLE,PH,4,S603,TRUE,134 OCEAN AVE;  ,JERSEY CITY,40.6930275,-74.09368134,1,S5HPNTSCZA
16-000831,S,1/1/16 16:28,3,1/1/16 16:29,1/1/16 16:28,T10.00,TRAFFIC STOP; TIME ELAPSED NOT APPLICABLE; INJURY NOT APPLICABLE,MVS,9,SK93E,TRUE,1815 JFK (KENNEDY BLVD);  ,JERSEY CITY,40.70241547,-74.09190369,1,S5HPNTSC-A
16-000832,N,1/1/16 16:29,3,1/1/16 16:30,1/1/16 16:30,J18.00,MAIL PICK UP; TIME ELAPSED NOT APPLICABLE; INJURY NOT APPLICABLE,SI,9,N103,TRUE,207 7TH ST;  ,JERSEY CITY,40.72590637,-74.04273987,1,S5HPNTSCZA
16-000833,E,1/1/16 16:29,3,1/1/16 16:31,1/1/16 16:40,D34.00,HANDICAPPED PARKING; TIME ELAPSED NOT APPLICABLE; INJURY NOT APPLICABLE,PH,7,E203,TRUE,433 MONMOUTH ST;  ,JERSEY CITY,40.72486115,-74.04901123,1,S5HPNTSCZA
16-000836,W,1/1/16 16:39,3,1/1/16 16:41,1/1/16 16:46,C22.00,THEFT PROP FROM VEHICLE; TIME ELAPSED NOT APPLICABLE; INJURY NOT APPLICABLE,PH,6,W603,TRUE,538 MERCER ST;  ,JERSEY CITY,40.72591019,-74.06588745,1,S5HPNTSCZA
16-000839,S,1/1/16 16:44,3,1/1/16 16:45,1/1/16 16:44,J32.00,PSN - PROJECT SAFE NEIGHBORHOODS; TIME ELAPSED NOT APPLICABLE; INJURY NOT APPLICABLE,SI,9,SMLKAB,TRUE,266 MLK (MARTIN LUTHER KING DR);  ,JERSEY CITY,40.70814514,-74.08205414,1,S5HP-TSC-A
16-000840,S,1/1/16 16:48,3,1/1/16 16:49,1/1/16 16:48,J32.00,PSN - PROJECT SAFE NEIGHBORHOODS; TIME ELAPSED NOT APPLICABLE; INJURY NOT APPLICABLE,SI,9,S603,TRUE,116 OCEAN AVE;  ,JERSEY CITY,40.69241714,-74.09441376,1,S5HPNTSCZA
16-000843,W,1/1/16 16:53,3,1/1/16 16:54,1/1/16 16:53,H25.00,TRANSPORTATION; TIME ELAPSED NOT APPLICABLE; INJURY NOT APPLICABLE,SI,7,W103,TRUE,576 COMMUNIPAW AVE;  ,JERSEY CITY,40.7170639,-74.07191467,1,S5HPNTSCZA
16-000844,S,1/1/16 16:57,3,1/1/16 16:59,1/1/16 16:58,H13.00,AMBULANCE REQUEST FOR; TIME ELAPSED NOT APPLICABLE; INJURY NOT APPLICABLE,SI,3,SMLKAB,TRUE,CLAREMONT AVE & MARTIN LUTHER KING DR;  ,JERSEY CITY,40.70981979,-74.08027649,1,SX
16-000846,S,1/1/16 16:59,3,1/1/16 17:00,1/1/16 16:59,J32.00,PSN - PROJECT SAFE NEIGHBORHOODS; TIME ELAPSED NOT APPLICABLE; INJURY NOT APPLICABLE,SI,9,SOC1A/B,TRUE,145 OCEAN AVE;  ,JERSEY CITY,40.69367599,-74.09314728,1,S5HPNTSCZA
16-000847,W,1/1/16 16:59,3,1/1/16 17:00,1/1/16 17:16,D24.00,OTHER PARKING VIOLATION; TIME ELAPSED NOT APPLICABLE; INJURY NOT APPLICABLE,PH,7,W203,TRUE,KENSINGTON AVE & KENNEDY BLVD;  ,JERSEY CITY,40.72296143,-74.07505035,2,SX
16-000849,E,1/1/16 16:59,3,1/1/16 17:00,1/1/01 0:00,Z33.00,RING BACK; TIME ELAPSED NOT APPLICABLE; INJURY NOT APPLICABLE,911,9,E603,TRUE,525 MONMOUTH ST;  ,JERSEY CITY,40.72895432,-74.04837799,1,S5HPNTSCZA
16-000850,N,1/1/16 17:00,3,1/1/16 17:01,1/1/16 17:31,D23.00,DRIVEWAY PARKING VIOLATION; TIME ELAPSED NOT APPLICABLE; INJURY NOT APPLICABLE,PH,7,N503,TRUE,14 CAMBRIDGE AVE;  ,JERSEY CITY,40.74332428,-74.04982758,1,S5HPNTSCZA
16-000858,S,1/1/16 17:08,3,1/1/16 17:10,1/1/16 17:09,D24.00,OTHER PARKING VIOLATION; TIME ELAPSED NOT APPLICABLE; INJURY NOT APPLICABLE,SI,7,S503,TRUE,CLAREMONT AVE & RANDOLPH AVE;  ,JERSEY CITY,40.70698166,-74.0743103,1,SX
16-000860,W,1/1/16 17:12,3,1/1/16 17:13,1/1/16 17:12,J13.00,PERSONAL OFF ON; TIME ELAPSED NOT APPLICABLE; INJURY NOT APPLICABLE,SI,9,WSLAF1,TRUE,576 COMMUNIPAW AVE;  ,JERSEY CITY,40.7170639,-74.07191467,1,S5HPNTSCZA
16-000861,E,1/1/16 17:13,3,1/1/16 17:15,1/1/16 17:38,A12.00,ASSAULT NO WEAPON; TIME ELAPSED NOT APPLICABLE; INJURY NOT APPLICABLE,PH,3,E303,FALSE,2 EXCHANGE PL;  ,JERSEY CITY,40.71651459,-74.03404236,1,S5HPNTSCZA
16-000861,E,1/1/16 17:13,3,1/1/16 17:15,1/1/16 17:38,A12.00,ASSAULT NO WEAPON; TIME ELAPSED NOT APPLICABLE; INJURY NOT APPLICABLE,PH,3,E103,TRUE,2 EXCHANGE PL;  ,JERSEY CITY,40.71651459,-74.03404236,1,S5HPNTSCZA
16-000862,N,1/1/16 17:16,3,1/1/16 17:18,1/1/16 17:34,B11.00,TERRORISTIC THREATS; TIME ELAPSED NOT APPLICABLE; INJURY NOT APPLICABLE,PH,2,N203,TRUE,782 TONNELE AVE;  ,JERSEY CITY,40.75665665,-74.05436707,1,S5HPNTSCZA
16-000863,N,1/1/16 17:16,3,1/1/16 17:18,1/1/16 17:37,D11.00,MOTOR VEHICLE ACCIDENT; TIME ELAPSED NOT APPLICABLE; INJURY NOT APPLICABLE,911,3,N403,TRUE,NEWARK AVE & TONNELE AVE;  ,JERSEY CITY,40.73580933,-74.06671143,1,SX
16-000864,S,1/1/16 17:17,3,1/1/16 17:18,1/1/16 17:17,J24.00,DIRECTED PATROL; TIME ELAPSED NOT APPLICABLE; INJURY NOT APPLICABLE,SI,9,S603,TRUE,COUNTRY (COUNTRY VILLAGE RD) & CROSSGATE RD;  ,JERSEY CITY,40.69766998,-74.10500336,1,SX
16-000868,E,1/1/16 17:25,3,1/1/16 17:29,1/1/16 17:36,H32.00,CHECK WELFARE OF; TIME ELAPSED NOT APPLICABLE; INJURY NOT APPLICABLE,PH,2,E203,TRUE,299 MONTGOMERY ST;  ,JERSEY CITY,40.71878815,-74.04854584,1,S5HPNTSCZA
16-000869,E,1/1/16 17:25,3,1/1/16 17:29,1/1/16 17:35,G11.20,LEWDNESS; IN PROGRESS AND/OR ACTOR ON SCENE; INJURY NOT APPLICABLE,PH,4,E603,TRUE,125 EIGHTEENTH ST (18TH ST);  ,JERSEY CITY,40.7335701,-74.03773499,1,S5HPNTSCZA
16-000871,E,1/1/16 17:26,3,1/1/16 17:28,1/1/01 0:00,F16.00,SUSPICIOUS PERSON/CONDITION; TIME ELAPSED NOT APPLICABLE; INJURY NOT APPLICABLE,911,3,E603,TRUE,465 JERSEY AVE; 5  ,JERSEY CITY,40.71837235,-74.04801941,1,S5HPNTSCZA
16-000873,W,1/1/16 17:33,3,1/1/16 17:34,1/1/16 17:38,D11.00,MOTOR VEHICLE ACCIDENT; TIME ELAPSED NOT APPLICABLE; INJURY NOT APPLICABLE,911,3,W603,FALSE,CLINTIN AVE (CLINTON AVE) & KENNEDY BLVD;  ,JERSEY CITY,40.71878815,-74.0785675,1,SX
16-000873,W,1/1/16 17:33,3,1/1/16 17:34,1/1/16 17:38,D11.00,MOTOR VEHICLE ACCIDENT; TIME ELAPSED NOT APPLICABLE; INJURY NOT APPLICABLE,911,3,W403,TRUE,CLINTIN AVE (CLINTON AVE) & KENNEDY BLVD;  ,JERSEY CITY,40.71878815,-74.0785675,1,SX
16-000874,E,1/1/16 17:37,3,1/1/16 17:38,1/1/16 17:37,T10.00,TRAFFIC STOP; TIME ELAPSED NOT APPLICABLE; INJURY NOT APPLICABLE,MVS,9,EPSGT,TRUE,GROVE ST & NEWARK AVE;  ,JERSEY CITY,40.7199707,-74.04292297,1,SX
16-000876,N,1/1/16 17:38,3,1/1/16 17:40,1/1/16 17:54,D11.00,MOTOR VEHICLE ACCIDENT; TIME ELAPSED NOT APPLICABLE; INJURY NOT APPLICABLE,911,3,N403,TRUE,NEWARK AVE & JAMES AVE;  ,JERSEY CITY,40.73765945,-74.0728302,1,SX
16-000877,S,1/1/16 17:40,3,1/1/16 17:41,1/1/16 17:40,J32.00,PSN - PROJECT SAFE NEIGHBORHOODS; TIME ELAPSED NOT APPLICABLE; INJURY NOT APPLICABLE,SI,9,SOC1A/B,TRUE,169 OCEAN AVE;  ,JERSEY CITY,40.6942749,-74.09243774,1,S5HPNTSCZA
16-000881,N,1/1/16 17:48,3,1/1/16 17:49,1/1/16 17:49,B22.00,PREVENT BREACH OF PEACE; TIME ELAPSED NOT APPLICABLE; INJURY NOT APPLICABLE,SI,7,N603,TRUE,62 CAMBRIDGE AVE;  ,JERSEY CITY,40.74500656,-74.04859161,1,S5HPNTSCZA
16-000882,W,1/1/16 17:50,3,1/1/16 17:51,1/1/16 17:51,J14.00,MEAL; TIME ELAPSED NOT APPLICABLE; INJURY NOT APPLICABLE,SI,9,W503,TRUE,576 COMMUNIPAW AVE;  ,JERSEY CITY,40.7170639,-74.07191467,1,S5HPNTSCZA
16-000883,S,1/1/16 17:52,3,1/1/16 17:55,1/1/16 18:06,G13.00,USE/SALE OF DRUGS; TIME ELAPSED NOT APPLICABLE; INJURY NOT APPLICABLE,PH,6,S303,TRUE,72 WOODLAWN AVE;  ,JERSEY CITY,40.70125198,-74.08322144,1,S5HPNTSCZA
16-000884,S,1/1/16 17:52,3,1/1/16 17:54,1/1/16 17:59,H13.00,AMBULANCE REQUEST FOR; TIME ELAPSED NOT APPLICABLE; INJURY NOT APPLICABLE,911,3,S603,FALSE,CLAREMONT AVE & KENNEDY BLVD;  ,JERSEY CITY,40.71194077,-74.08408356,1,SX
16-000884,S,1/1/16 17:52,3,1/1/16 17:54,1/1/16 17:59,H13.00,AMBULANCE REQUEST FOR; TIME ELAPSED NOT APPLICABLE; INJURY NOT APPLICABLE,911,3,S403,TRUE,CLAREMONT AVE & KENNEDY BLVD;  ,JERSEY CITY,40.71194077,-74.08408356,1,SX
16-000884,S,1/1/16 17:52,3,1/1/16 17:54,1/1/16 17:59,H13.00,AMBULANCE REQUEST FOR; TIME ELAPSED NOT APPLICABLE; INJURY NOT APPLICABLE,911,3,S103,FALSE,CLAREMONT AVE & KENNEDY BLVD;  ,JERSEY CITY,40.71194077,-74.08408356,1,SX
16-000886,W,1/1/16 17:53,3,1/1/16 17:54,1/1/01 0:00,D11.00,MOTOR VEHICLE ACCIDENT; TIME ELAPSED NOT APPLICABLE; INJURY NOT APPLICABLE,PH,3,W603,FALSE,OXFORD AVE & BERGEN AVE;  ,JERSEY CITY,40.71731949,-74.07711029,2,SX
16-000889,N,1/1/16 18:01,3,1/1/16 18:02,1/1/16 18:02,J14.00,MEAL; TIME ELAPSED NOT APPLICABLE; INJURY NOT APPLICABLE,SI,9,N103,TRUE,282 CENTRAL AVE;  ,JERSEY CITY,40.74448395,-74.05031586,1,S5HPNTSCZA
16-000890,S,1/1/16 18:01,3,1/1/16 18:02,1/1/16 18:02,J14.00,MEAL; TIME ELAPSED NOT APPLICABLE; INJURY NOT APPLICABLE,SI,9,S103,TRUE,191 BERGEN AVE;  ,JERSEY CITY,40.70915985,-74.08473969,1,S5HPNTSCZA
16-000891,N,1/1/16 18:03,3,1/1/16 18:04,1/1/16 18:41,D34.00,HANDICAPPED PARKING; TIME ELAPSED NOT APPLICABLE; INJURY NOT APPLICABLE,PH,7,N503,TRUE,67 COLUMBIA AVE;  ,JERSEY CITY,40.75044632,-74.05565643,1,S5HPNTSCZA
16-000893,S,1/1/16 18:04,3,1/1/16 18:05,1/1/16 18:05,J13.00,PERSONAL OFF ON; TIME ELAPSED NOT APPLICABLE; INJURY NOT APPLICABLE,SI,9,SMLKAB,TRUE,191 BERGEN AVE;  ,JERSEY CITY,40.70915985,-74.08473969,1,S5HPNTSCZA
16-000894,E,1/1/16 18:05,3,1/1/16 18:06,1/1/16 18:05,T10.00,TRAFFIC STOP; TIME ELAPSED NOT APPLICABLE; INJURY NOT APPLICABLE,MVS,9,E403,FALSE,GRAND ST & PACIFIC AVE;  ,JERSEY CITY,0,0,0,NOT FOUND
16-000894,E,1/1/16 18:05,3,1/1/16 18:06,1/1/16 18:05,T10.00,TRAFFIC STOP; TIME ELAPSED NOT APPLICABLE; INJURY NOT APPLICABLE,MVS,9,EPSGT,TRUE,GRAND ST & PACIFIC AVE;  ,JERSEY CITY,0,0,0,NOT FOUND
16-000895,S,1/1/16 18:06,3,1/1/16 18:07,1/1/16 18:19,D11.00,MOTOR VEHICLE ACCIDENT; TIME ELAPSED NOT APPLICABLE; INJURY NOT APPLICABLE,911,3,S603,TRUE,466 OCEAN AVE;  ,JERSEY CITY,40.70232773,-74.08158112,1,S5HPNTSCZA
16-000896,E,1/1/16 18:07,3,1/1/16 18:08,1/1/16 18:07,J14.00,MEAL; TIME ELAPSED NOT APPLICABLE; INJURY NOT APPLICABLE,SI,9,E103,TRUE,207 7TH ST;  ,JERSEY CITY,40.72590637,-74.04273987,1,S5HPNTSCZA
16-000897,S,1/1/16 18:07,3,1/1/16 18:08,1/1/16 18:08,J13.00,PERSONAL OFF ON; TIME ELAPSED NOT APPLICABLE; INJURY NOT APPLICABLE,SI,9,SSD1/2,TRUE,191 BERGEN AVE;  ,JERSEY CITY,40.70915985,-74.08473969,1,S5HPNTSCZA
16-000901,S,1/1/16 18:09,3,1/1/16 18:11,1/1/16 18:10,T10.00,TRAFFIC STOP; TIME ELAPSED NOT APPLICABLE; INJURY NOT APPLICABLE,MVS,9,S603,FALSE,OCEAN AVE & FULTON AVE;  ,JERSEY CITY,40.70164871,-74.08235168,1,SX
16-000901,S,1/1/16 18:09,3,1/1/16 18:11,1/1/16 18:10,T10.00,TRAFFIC STOP; TIME ELAPSED NOT APPLICABLE; INJURY NOT APPLICABLE,MVS,9,SK93E,TRUE,OCEAN AVE & FULTON AVE;  ,JERSEY CITY,40.70164871,-74.08235168,1,SX
16-000904,S,1/1/16 18:20,3,1/1/16 18:22,1/1/16 18:31,D15.00,LEAVING THE SCENE OF A ACCIDENT ( PROPERTY DAMAGE ONLY ); TIME ELAPSED NOT APPLICABLE; INJURY NOT APPLICABLE,911,6,S203,TRUE,OCEAN AVE & BARTHOLDI AVE;  ,JERSEY CITY,40.69318008,-74.0936203,1,SX
16-000905,W,1/1/16 18:22,3,1/1/16 18:22,1/1/16 18:22,J14.00,MEAL; TIME ELAPSED NOT APPLICABLE; INJURY NOT APPLICABLE,SI,9,W203,TRUE,576 COMMUNIPAW AVE;  ,JERSEY CITY,40.7170639,-74.07191467,1,S5HPNTSCZA
16-000907,N,1/1/16 18:26,3,1/1/16 18:27,1/1/16 18:27,J14.00,MEAL; TIME ELAPSED NOT APPLICABLE; INJURY NOT APPLICABLE,SI,9,N303,TRUE,282 CENTRAL AVE;  ,JERSEY CITY,40.74448395,-74.05031586,1,S5HPNTSCZA
16-000912,W,1/1/16 18:31,3,1/1/16 18:32,1/1/16 18:32,J14.00,MEAL; TIME ELAPSED NOT APPLICABLE; INJURY NOT APPLICABLE,SI,9,WSID,FALSE,576 COMMUNIPAW AVE;  ,JERSEY CITY,40.7170639,-74.07191467,1,S5HPNTSCZA
16-000912,W,1/1/16 18:31,3,1/1/16 18:32,1/1/16 18:32,J14.00,MEAL; TIME ELAPSED NOT APPLICABLE; INJURY NOT APPLICABLE,SI,9,W303,TRUE,576 COMMUNIPAW AVE;  ,JERSEY CITY,40.7170639,-74.07191467,1,S5HPNTSCZA
16-000914,N,1/1/16 18:31,3,1/1/16 18:32,1/1/16 18:32,T10.00,TRAFFIC STOP; TIME ELAPSED NOT APPLICABLE; INJURY NOT APPLICABLE,MVS,9,NP27,TRUE,1 PATH PLZ;  ,JERSEY CITY,40.73271942,-74.06056976,1,S2HPNTSCZA
16-000915,E,1/1/16 18:31,3,1/1/16 18:32,1/1/16 18:32,J14.00,MEAL; TIME ELAPSED NOT APPLICABLE; INJURY NOT APPLICABLE,SI,9,E303,TRUE,207 7TH ST;  ,JERSEY CITY,40.72590637,-74.04273987,1,S5HPNTSCZA
16-000916,W,1/1/16 18:40,3,1/1/16 18:41,1/1/16 18:41,J26.00,OTHER ADMIN POLICE ACTIVITY; TIME ELAPSED NOT APPLICABLE; INJURY NOT APPLICABLE,SI,9,W503,TRUE,576 COMMUNIPAW AVE;  ,JERSEY CITY,40.7170639,-74.07191467,1,S5HPNTSCZA
16-000917,E,1/1/16 18:40,3,1/1/16 18:42,1/1/16 18:41,T10.00,TRAFFIC STOP; TIME ELAPSED NOT APPLICABLE; INJURY NOT APPLICABLE,MVS,9,EPSGT,FALSE,616 JERSEY AVE;  ,JERSEY CITY,40.72494507,-74.04542542,1,S5HPNTSCZA
16-000917,E,1/1/16 18:40,3,1/1/16 18:42,1/1/16 18:41,T10.00,TRAFFIC STOP; TIME ELAPSED NOT APPLICABLE; INJURY NOT APPLICABLE,MVS,9,EP28,FALSE,616 JERSEY AVE;  ,JERSEY CITY,40.72494507,-74.04542542,1,S5HPNTSCZA
16-000917,E,1/1/16 18:40,3,1/1/16 18:42,1/1/16 18:41,T10.00,TRAFFIC STOP; TIME ELAPSED NOT APPLICABLE; INJURY NOT APPLICABLE,MVS,9,E403,TRUE,616 JERSEY AVE;  ,JERSEY CITY,40.72494507,-74.04542542,1,S5HPNTSCZA
16-000918,N,1/1/16 18:44,3,1/1/16 18:45,1/1/16 18:44,J14.00,MEAL; TIME ELAPSED NOT APPLICABLE; INJURY NOT APPLICABLE,SI,9,N503,TRUE,282 CENTRAL AVE;  ,JERSEY CITY,40.74448395,-74.05031586,1,S5HPNTSCZA
16-000919,W,1/1/16 18:45,3,1/1/16 18:46,1/1/01 0:00,D23.00,DRIVEWAY PARKING VIOLATION; TIME ELAPSED NOT APPLICABLE; INJURY NOT APPLICABLE,PH,7,W603,TRUE,50 WALLIS AVE;  ,JERSEY CITY,40.73545074,-74.07534027,1,S5HPNTSCZA
16-000922,S,1/1/16 18:48,3,1/1/16 18:49,1/1/16 18:49,J14.00,MEAL; TIME ELAPSED NOT APPLICABLE; INJURY NOT APPLICABLE,SI,9,S303,TRUE,191 BERGEN AVE;  ,JERSEY CITY,40.70915985,-74.08473969,1,S5HPNTSCZA
16-000924,W,1/1/16 18:51,3,1/1/16 18:52,1/1/01 0:00,E13.00,LOUD MUSIC; TIME ELAPSED NOT APPLICABLE; INJURY NOT APPLICABLE,PH,7,W203,TRUE,SACKETT ST & BRAMHALL AVE;  ,JERSEY CITY,40.71625137,-74.0766983,1,SX
16-000925,E,1/1/16 18:51,3,1/1/16 18:53,1/1/16 18:52,J14.00,MEAL; TIME ELAPSED NOT APPLICABLE; INJURY NOT APPLICABLE,SI,9,E503,TRUE,207 7TH ST;  ,JERSEY CITY,40.72590637,-74.04273987,1,S5HPNTSCZA
16-000926,W,1/1/16 18:51,3,1/1/16 18:52,1/1/16 18:52,J14.00,MEAL; TIME ELAPSED NOT APPLICABLE; INJURY NOT APPLICABLE,SI,9,W403,TRUE,576 COMMUNIPAW AVE;  ,JERSEY CITY,40.7170639,-74.07191467,1,S5HPNTSCZA
16-000929,S,1/1/16 18:52,3,1/1/16 18:53,1/1/16 18:52,J26.00,OTHER ADMIN POLICE ACTIVITY; TIME ELAPSED NOT APPLICABLE; INJURY NOT APPLICABLE,SI,9,S103,TRUE,191 BERGEN AVE;  ,JERSEY CITY,40.70915985,-74.08473969,1,S5HPNTSCZA
16-000930,S,1/1/16 18:54,3,1/1/16 18:54,1/1/16 18:54,J13.00,PERSONAL OFF ON; TIME ELAPSED NOT APPLICABLE; INJURY NOT APPLICABLE,SI,9,S403,TRUE,191 BERGEN AVE;  ,JERSEY CITY,40.70915985,-74.08473969,1,S5HPNTSCZA
16-000931,N,1/1/16 18:59,3,1/1/16 18:59,1/1/16 18:59,J14.00,MEAL; TIME ELAPSED NOT APPLICABLE; INJURY NOT APPLICABLE,SI,9,NP27,FALSE,282 CENTRAL AVE;  ,JERSEY CITY,40.74448395,-74.05031586,1,S5HPNTSCZA
16-000931,N,1/1/16 18:59,3,1/1/16 18:59,1/1/16 18:59,J14.00,MEAL; TIME ELAPSED NOT APPLICABLE; INJURY NOT APPLICABLE,SI,9,N203,TRUE,282 CENTRAL AVE;  ,JERSEY CITY,40.74448395,-74.05031586,1,S5HPNTSCZA
16-000935,E,1/1/16 19:02,3,1/1/16 19:04,1/1/16 19:03,J14.00,MEAL; TIME ELAPSED NOT APPLICABLE; INJURY NOT APPLICABLE,SI,9,E203,TRUE,207 7TH ST;  ,JERSEY CITY,40.72590637,-74.04273987,1,S5HPNTSCZA
16-000936,W,1/1/16 19:04,3,1/1/16 19:05,1/1/16 19:04,J14.00,MEAL; TIME ELAPSED NOT APPLICABLE; INJURY NOT APPLICABLE,SI,9,WP1,FALSE,576 COMMUNIPAW AVE;  ,JERSEY CITY,40.7170639,-74.07191467,1,S5HPNTSCZA
16-000936,W,1/1/16 19:04,3,1/1/16 19:05,1/1/16 19:04,J14.00,MEAL; TIME ELAPSED NOT APPLICABLE; INJURY NOT APPLICABLE,SI,9,W103,TRUE,576 COMMUNIPAW AVE;  ,JERSEY CITY,40.7170639,-74.07191467,1,S5HPNTSCZA
16-000937,W,1/1/16 19:04,3,1/1/16 19:07,1/1/01 0:00,B11.00,TERRORISTIC THREATS; TIME ELAPSED NOT APPLICABLE; INJURY NOT APPLICABLE,911,2,W303,TRUE,207 A MALLORY AVE;  ,JERSEY CITY,40.72145462,-74.0865097,1,S5HPNTSCZA
16-000938,S,1/1/16 19:05,3,1/1/16 19:05,1/1/16 19:05,J24.00,DIRECTED PATROL; TIME ELAPSED NOT APPLICABLE; INJURY NOT APPLICABLE,SI,9,S203,TRUE,COUNTRY (COUNTRY VILLAGE RD) & CROSSGATE RD;  ,JERSEY CITY,40.69766998,-74.10500336,1,SX
16-000939,E,1/1/16 19:06,3,1/1/16 19:07,1/1/16 19:30,C31.00,BURG ALARM COMMERCIAL PROP; TIME ELAPSED NOT APPLICABLE; INJURY NOT APPLICABLE,PH,4,E603,TRUE,613 WASHINGTON BLVD;  ,JERSEY CITY,40.72714615,-74.03482056,1,S5HPNTSCZA
16-000940,N,1/1/16 19:16,3,1/1/16 19:17,1/1/16 19:16,J14.00,MEAL; TIME ELAPSED NOT APPLICABLE; INJURY NOT APPLICABLE,SI,9,N603,TRUE,282 CENTRAL AVE;  ,JERSEY CITY,40.74448395,-74.05031586,1,S5HPNTSCZA
16-000941,W,1/1/16 19:22,3,1/1/16 19:23,1/1/16 19:22,J14.00,MEAL; TIME ELAPSED NOT APPLICABLE; INJURY NOT APPLICABLE,SI,9,W603,TRUE,576 COMMUNIPAW AVE;  ,JERSEY CITY,40.7170639,-74.07191467,1,S5HPNTSCZA
16-000942,W,1/1/16 19:24,3,1/1/16 19:27,1/1/16 19:42,F16.00,SUSPICIOUS PERSON/CONDITION; TIME ELAPSED NOT APPLICABLE; INJURY NOT APPLICABLE,PH,3,W203,TRUE,217 MALLORY AVE;  ,JERSEY CITY,40.72164917,-74.08631897,1,S5HPNTSCZA
16-000943,S,1/1/16 19:29,3,1/1/16 19:30,1/1/16 19:29,J14.00,MEAL; TIME ELAPSED NOT APPLICABLE; INJURY NOT APPLICABLE,SI,9,S503,TRUE,191 BERGEN AVE;  ,JERSEY CITY,40.70915985,-74.08473969,1,S5HPNTSCZA
16-000945,W,1/1/16 19:32,3,1/1/16 19:33,1/1/16 19:33,J14.00,MEAL; TIME ELAPSED NOT APPLICABLE; INJURY NOT APPLICABLE,SI,9,WP2,TRUE,576 COMMUNIPAW AVE;  ,JERSEY CITY,40.7170639,-74.07191467,1,S5HPNTSCZA
16-000946,N,1/1/16 19:33,3,1/1/16 19:33,1/1/16 19:33,J14.00,MEAL; TIME ELAPSED NOT APPLICABLE; INJURY NOT APPLICABLE,SI,9,N403,TRUE,282 CENTRAL AVE;  ,JERSEY CITY,40.74448395,-74.05031586,1,S5HPNTSCZA
16-000947,W,1/1/16 19:33,3,1/1/16 19:33,1/1/16 19:33,J11.00,VEHICLE SERVICE SHOP; TIME ELAPSED NOT APPLICABLE; INJURY NOT APPLICABLE,SI,9,WSID,TRUE,15 E LINDEN AVE;  ,JERSEY CITY,40.69113922,-74.08826447,1,S5HPNTSC-A
16-000949,W,1/1/16 19:40,3,1/1/16 19:41,1/1/16 19:41,C33.00,BURG ALARM OTHER; TIME ELAPSED NOT APPLICABLE; INJURY NOT APPLICABLE,SI,4,WSGT,TRUE,441 BERGEN AVE;  ,JERSEY CITY,40.71666336,-74.07815552,1,S5HPNTSCZA
16-000950,W,1/1/16 19:41,3,1/1/16 19:42,1/1/16 19:41,J11.00,VEHICLE SERVICE SHOP; TIME ELAPSED NOT APPLICABLE; INJURY NOT APPLICABLE,SI,9,W303,TRUE,15 E LINDEN AVE;  ,JERSEY CITY,40.69113922,-74.08826447,1,S5HPNTSC-A
16-000952,N,1/1/16 19:44,3,1/1/16 19:45,1/1/16 20:19,D23.00,DRIVEWAY PARKING VIOLATION; TIME ELAPSED NOT APPLICABLE; INJURY NOT APPLICABLE,PH,7,N303,TRUE,80 TERRACE AVE;  ,JERSEY CITY,40.74905777,-74.05850983,1,S5HPNTSCZA
16-000954,N,1/1/16 19:46,3,1/1/16 19:47,1/1/16 19:47,J32.00,PSN - PROJECT SAFE NEIGHBORHOODS; TIME ELAPSED NOT APPLICABLE; INJURY NOT APPLICABLE,SI,9,N503,TRUE,356 CENTRAL AVE;  ,JERSEY CITY,40.74693298,-74.04862213,1,S5HPNTSCZA
16-000955,S,1/1/16 19:46,3,1/1/16 19:47,1/1/16 19:47,J14.00,MEAL; TIME ELAPSED NOT APPLICABLE; INJURY NOT APPLICABLE,SI,9,S203,TRUE,191 BERGEN AVE;  ,JERSEY CITY,40.70915985,-74.08473969,1,S5HPNTSCZA
16-000959,S,1/1/16 19:51,3,1/1/16 19:52,1/1/16 19:52,J32.00,PSN - PROJECT SAFE NEIGHBORHOODS; TIME ELAPSED NOT APPLICABLE; INJURY NOT APPLICABLE,SI,9,SSD1/2,TRUE,56 RUTGERS AVE;  ,JERSEY CITY,40.6992569,-74.08940125,1,S5HPNTSCZA
16-000960,E,1/1/16 19:52,3,1/1/16 19:55,1/1/16 20:20,D34.00,HANDICAPPED PARKING; TIME ELAPSED NOT APPLICABLE; INJURY NOT APPLICABLE,PH,7,E103,TRUE,22 BRIGHT ST;  ,JERSEY CITY,40.71650314,-74.04573059,1,S5HPNTSCZA
16-000962,S,1/1/16 19:54,3,1/1/16 19:54,1/1/16 19:54,J32.00,PSN - PROJECT SAFE NEIGHBORHOODS; TIME ELAPSED NOT APPLICABLE; INJURY NOT APPLICABLE,SI,9,SOC1A/B,TRUE,216 OCEAN AVE;  ,JERSEY CITY,40.69549561,-74.09069824,1,S5HPNTSCZA
16-000965,E,1/1/16 19:57,3,1/1/16 20:00,1/1/16 20:18,C24.00,THEFT OTHER PROP; TIME ELAPSED NOT APPLICABLE; INJURY NOT APPLICABLE,PH,6,E303,TRUE,700 GROVE ST; 9C  ,JERSEY CITY,40.73562622,-74.0404129,1,S5HPNTSCZA
16-000967,N,1/1/16 19:59,3,1/1/16 20:01,1/1/16 20:19,D11.00,MOTOR VEHICLE ACCIDENT; TIME ELAPSED NOT APPLICABLE; INJURY NOT APPLICABLE,911,3,N203,TRUE,NEWARK AVE & KENNEDY BLVD;  ,JERSEY CITY,40.73537064,-74.06311798,1,SX
16-000968,S,1/1/16 20:00,3,1/1/16 20:01,1/1/16 20:01,J13.00,PERSONAL OFF ON; TIME ELAPSED NOT APPLICABLE; INJURY NOT APPLICABLE,SI,9,SSD1/2,TRUE,191 BERGEN AVE;  ,JERSEY CITY,40.70915985,-74.08473969,1,S5HPNTSCZA
16-000972,W,1/1/16 20:01,3,1/1/16 20:04,1/1/16 20:23,B23.00,OTHER INTER/CONFLICT; TIME ELAPSED NOT APPLICABLE; INJURY NOT APPLICABLE,911,5,W103,TRUE,880 BERGEN AVE;  ,JERSEY CITY,40.72933578,-74.06597137,1,S5HPNTSCZA
16-000973,S,1/1/16 20:01,3,1/1/16 20:03,1/1/16 20:02,J14.00,MEAL; TIME ELAPSED NOT APPLICABLE; INJURY NOT APPLICABLE,SI,9,SOC1A/B,TRUE,191 BERGEN AVE;  ,JERSEY CITY,40.70915985,-74.08473969,1,S5HPNTSCZA
16-000974,S,1/1/16 20:03,3,1/1/16 20:05,1/1/16 20:18,G13.00,USE/SALE OF DRUGS; TIME ELAPSED NOT APPLICABLE; INJURY NOT APPLICABLE,PH,6,S303,TRUE,96 BERGEN AVE;  ,JERSEY CITY,40.70609665,-74.08702087,1,S5HPNTSCZA
16-000975,W,1/1/16 20:04,3,1/1/16 20:06,1/1/16 20:05,J26.00,OTHER ADMIN POLICE ACTIVITY; TIME ELAPSED NOT APPLICABLE; INJURY NOT APPLICABLE,SI,9,W403,TRUE,576 COMMUNIPAW AVE;  ,JERSEY CITY,40.7170639,-74.07191467,1,S5HPNTSCZA
16-000976,S,1/1/16 20:04,3,1/1/16 20:06,1/1/16 20:05,J31.00,SERVING RESTRAINING / COURT ORDER; TIME ELAPSED NOT APPLICABLE; INJURY NOT APPLICABLE,SI,9,S603,TRUE,149 NEPTUNE AVE;  ,JERSEY CITY,40.69364166,-74.0962677,1,S5HPNTSCZA
16-000977,S,1/1/16 20:06,3,1/1/16 20:07,1/1/16 20:06,J14.00,MEAL; TIME ELAPSED NOT APPLICABLE; INJURY NOT APPLICABLE,SI,9,S403,TRUE,191 BERGEN AVE;  ,JERSEY CITY,40.70915985,-74.08473969,1,S5HPNTSCZA
16-000978,N,1/1/16 20:07,3,1/1/16 20:07,1/1/16 20:07,J26.00,OTHER ADMIN POLICE ACTIVITY; TIME ELAPSED NOT APPLICABLE; INJURY NOT APPLICABLE,SI,9,N103,TRUE,282 CENTRAL AVE;  ,JERSEY CITY,40.74448395,-74.05031586,1,S5HPNTSCZA
16-000980,W,1/1/16 20:08,3,1/1/16 20:13,1/1/16 20:30,B19.00,PUBLIC ARGUMENT; TIME ELAPSED NOT APPLICABLE; INJURY NOT APPLICABLE,PH,5,W603,TRUE,867 BERGEN AVE;  ,JERSEY CITY,40.72916412,-74.06641388,1,S5HPNTSCZA
16-000983,E,1/1/16 20:14,3,1/1/16 20:16,1/1/16 20:29,C31.00,BURG ALARM COMMERCIAL PROP; TIME ELAPSED NOT APPLICABLE; INJURY NOT APPLICABLE,PH,4,E503,TRUE,463 PACIFIC AVE;  ,JERSEY CITY,40.71512985,-74.05756378,1,S5HPNTSCZA
16-000984,E,1/1/16 20:15,3,1/1/16 20:16,1/1/16 20:15,J14.00,MEAL; TIME ELAPSED NOT APPLICABLE; INJURY NOT APPLICABLE,SI,9,E403,TRUE,207 7TH ST;  ,JERSEY CITY,40.72590637,-74.04273987,1,S5HPNTSCZA
16-000985,S,1/1/16 20:16,3,1/1/16 20:17,1/1/16 20:16,J14.00,MEAL; TIME ELAPSED NOT APPLICABLE; INJURY NOT APPLICABLE,SI,9,SMLKAB,TRUE,191 BERGEN AVE;  ,JERSEY CITY,40.70915985,-74.08473969,1,S5HPNTSCZA
16-000986,W,1/1/16 20:16,3,1/1/16 20:18,1/1/16 20:17,J14.00,MEAL; TIME ELAPSED NOT APPLICABLE; INJURY NOT APPLICABLE,SI,9,WSLAF1,TRUE,576 COMMUNIPAW AVE;  ,JERSEY CITY,40.7170639,-74.07191467,1,S5HPNTSCZA
16-000989,W,1/1/16 20:20,3,1/1/16 20:21,1/1/16 20:21,D29.00,DISABLED VEHICLE; TIME ELAPSED NOT APPLICABLE; INJURY NOT APPLICABLE,SI,7,WSID,TRUE,BRAMHALL AVE & OCEAN AVE;  ,JERSEY CITY,40.7142601,-74.07296753,1,SX
16-000991,W,1/1/16 20:22,3,1/1/16 20:23,1/1/16 20:23,J26.20,OTHER ADMIN POLICE ACTIVITY; IN PROGRESS AND/OR ACTOR ON SCENE; INJURY NOT APPLICABLE,SI,6,W203,TRUE,576 COMMUNIPAW AVE;  ,JERSEY CITY,40.7170639,-74.07191467,1,S5HPNTSCZA
16-000996,E,1/1/16 20:29,3,1/1/16 20:30,1/1/01 0:00,C31.00,BURG ALARM COMMERCIAL PROP; TIME ELAPSED NOT APPLICABLE; INJURY NOT APPLICABLE,PH,4,E603,TRUE,613 WASHINGTON BLVD;  ,JERSEY CITY,40.72714615,-74.03482056,1,S5HPNTSCZA
16-000999,W,1/1/16 20:34,3,1/1/16 20:37,1/1/01 0:00,G13.00,USE/SALE OF DRUGS; TIME ELAPSED NOT APPLICABLE; INJURY NOT APPLICABLE,PH,6,W303,TRUE,192 CLINTIN AVE (CLINTON AVE);  ,JERSEY CITY,40.71892166,-74.07865143,1,S5HPNTSCZA
16-001000,S,1/1/16 20:36,3,1/1/16 20:37,1/1/16 20:36,J14.00,MEAL; TIME ELAPSED NOT APPLICABLE; INJURY NOT APPLICABLE,SI,9,SSD1/2,TRUE,191 BERGEN AVE;  ,JERSEY CITY,40.70915985,-74.08473969,1,S5HPNTSCZA
16-001001,S,1/1/16 20:36,3,1/1/16 20:37,1/1/16 20:37,J14.00,MEAL; TIME ELAPSED NOT APPLICABLE; INJURY NOT APPLICABLE,SI,9,S603,TRUE,191 BERGEN AVE;  ,JERSEY CITY,40.70915985,-74.08473969,1,S5HPNTSCZA
16-001002,N,1/1/16 20:37,3,1/1/16 20:38,1/1/16 20:55,A12.00,ASSAULT NO WEAPON; TIME ELAPSED NOT APPLICABLE; INJURY NOT APPLICABLE,PH,3,NLT,FALSE,328 LIBERTY AVE;  ,JERSEY CITY,40.74795532,-74.05820465,1,S5HPNTSCZA
16-001002,N,1/1/16 20:37,3,1/1/16 20:38,1/1/16 20:55,A12.00,ASSAULT NO WEAPON; TIME ELAPSED NOT APPLICABLE; INJURY NOT APPLICABLE,PH,3,N503,FALSE,328 LIBERTY AVE;  ,JERSEY CITY,40.74795532,-74.05820465,1,S5HPNTSCZA
16-001002,N,1/1/16 20:37,3,1/1/16 20:38,1/1/16 20:55,A12.00,ASSAULT NO WEAPON; TIME ELAPSED NOT APPLICABLE; INJURY NOT APPLICABLE,PH,3,N203,FALSE,328 LIBERTY AVE;  ,JERSEY CITY,40.74795532,-74.05820465,1,S5HPNTSCZA
16-001002,N,1/1/16 20:37,3,1/1/16 20:38,1/1/16 20:55,A12.00,ASSAULT NO WEAPON; TIME ELAPSED NOT APPLICABLE; INJURY NOT APPLICABLE,PH,3,CE2E,FALSE,328 LIBERTY AVE;  ,JERSEY CITY,40.74795532,-74.05820465,1,S5HPNTSCZA
16-001002,N,1/1/16 20:37,3,1/1/16 20:38,1/1/16 20:55,A12.00,ASSAULT NO WEAPON; TIME ELAPSED NOT APPLICABLE; INJURY NOT APPLICABLE,PH,3,N603,TRUE,328 LIBERTY AVE;  ,JERSEY CITY,40.74795532,-74.05820465,1,S5HPNTSCZA
16-001008,S,1/1/16 21:01,3,1/1/16 21:04,1/1/16 22:00,C29.00,BURG ALARM RESIDENTIAL PROP; TIME ELAPSED NOT APPLICABLE; INJURY NOT APPLICABLE,PH,4,S203,TRUE,233 STEVENS AVE;  ,JERSEY CITY,40.70493317,-74.09342194,1,S5HPNTSCZA
16-001012,N,1/1/16 21:07,3,1/1/16 21:09,1/1/16 22:07,D34.00,HANDICAPPED PARKING; TIME ELAPSED NOT APPLICABLE; INJURY NOT APPLICABLE,PH,7,N403,TRUE,153 COLUMBIA AVE;  ,JERSEY CITY,40.75353622,-74.05348206,1,S5HPNTSCZA
16-001013,S,1/1/16 21:09,3,1/1/16 21:10,1/1/16 21:09,F16.00,SUSPICIOUS PERSON/CONDITION; TIME ELAPSED NOT APPLICABLE; INJURY NOT APPLICABLE,SI,3,S403,FALSE,205 STEVENS AVE;  ,JERSEY CITY,40.70415878,-74.09262085,1,S5HPNTSCZA
16-001013,S,1/1/16 21:09,3,1/1/16 21:10,1/1/16 21:09,F16.00,SUSPICIOUS PERSON/CONDITION; TIME ELAPSED NOT APPLICABLE; INJURY NOT APPLICABLE,SI,3,C520,TRUE,205 STEVENS AVE;  ,JERSEY CITY,40.70415878,-74.09262085,1,S5HPNTSCZA
16-001015,N,1/1/16 21:14,3,1/1/16 21:15,1/1/16 22:07,E13.00,LOUD MUSIC; TIME ELAPSED NOT APPLICABLE; INJURY NOT APPLICABLE,PH,7,N303,TRUE,66 LINCOLN ST; BASEMENT  ,JERSEY CITY,40.74787903,-74.05200195,1,S5HPNTSCZA
16-001018,S,1/1/16 21:24,3,1/1/16 21:25,1/1/16 21:30,G13.00,USE/SALE OF DRUGS; TIME ELAPSED NOT APPLICABLE; INJURY NOT APPLICABLE,PH,6,S503,TRUE,96 BERGEN AVE;  ,JERSEY CITY,40.70609665,-74.08702087,1,S5HPNTSCZA
16-001018,S,1/1/16 21:24,3,1/1/16 21:25,1/1/16 21:30,G13.00,USE/SALE OF DRUGS; TIME ELAPSED NOT APPLICABLE; INJURY NOT APPLICABLE,PH,6,S203,FALSE,96 BERGEN AVE;  ,JERSEY CITY,40.70609665,-74.08702087,1,S5HPNTSCZA
16-001019,W,1/1/16 21:25,3,1/1/16 21:28,1/1/16 21:32,H13.00,AMBULANCE REQUEST FOR; TIME ELAPSED NOT APPLICABLE; INJURY NOT APPLICABLE,911,3,W103,TRUE,281 VIRGINIA AVE; (1 FL),JERSEY CITY,40.71707153,-74.08614349,1,S5HPNTSCZA
16-001022,W,1/1/16 21:30,3,1/1/16 21:30,1/1/16 21:30,J11.00,VEHICLE SERVICE SHOP; TIME ELAPSED NOT APPLICABLE; INJURY NOT APPLICABLE,SI,9,W203,TRUE,576 COMMUNIPAW AVE;  ,JERSEY CITY,40.7170639,-74.07191467,1,S5HPNTSCZA
16-001024,W,1/1/16 21:32,3,1/1/16 21:33,1/1/16 21:36,E14.00,STREET FIGHT ( NO WEAPONS ); TIME ELAPSED NOT APPLICABLE; INJURY NOT APPLICABLE,911,3,W603,TRUE,ROOSEVELT AVE & MALLORY AVE;  ,JERSEY CITY,40.72180939,-74.08576965,2,SX
16-001024,W,1/1/16 21:32,3,1/1/16 21:33,1/1/16 21:36,E14.00,STREET FIGHT ( NO WEAPONS ); TIME ELAPSED NOT APPLICABLE; INJURY NOT APPLICABLE,911,3,W403,FALSE,ROOSEVELT AVE & MALLORY AVE;  ,JERSEY CITY,40.72180939,-74.08576965,2,SX
16-001025,W,1/1/16 21:32,3,1/1/16 21:33,1/1/16 21:33,H35.00,OTHER ASSISTANCE; TIME ELAPSED NOT APPLICABLE; INJURY NOT APPLICABLE,SI,6,W303,TRUE,576 COMMUNIPAW AVE;  ,JERSEY CITY,40.7170639,-74.07191467,1,S5HPNTSCZA
16-001026,E,1/1/16 21:36,3,1/1/16 21:40,1/1/16 21:46,A12.22,ASSAULT NO WEAPON; IN PROGRESS AND/OR ACTOR ON SCENE; ATTEMPT TO CAUSE INJURY,911,2,EPSGT,FALSE,290 GRAND ST; 2  ,JERSEY CITY,40.71635056,-74.04653168,1,S5HPNTSCZA
16-001026,E,1/1/16 21:36,3,1/1/16 21:40,1/1/16 21:46,A12.22,ASSAULT NO WEAPON; IN PROGRESS AND/OR ACTOR ON SCENE; ATTEMPT TO CAUSE INJURY,911,2,E503,TRUE,290 GRAND ST; 2  ,JERSEY CITY,40.71635056,-74.04653168,1,S5HPNTSCZA
16-001027,S,1/1/16 21:37,3,1/1/16 21:38,1/1/16 21:37,J14.00,MEAL; TIME ELAPSED NOT APPLICABLE; INJURY NOT APPLICABLE,SI,9,SOC2ABC,TRUE,191 BERGEN AVE;  ,JERSEY CITY,40.70915985,-74.08473969,1,S5HPNTSCZA
16-001029,S,1/1/16 21:39,3,1/1/16 21:41,1/1/16 21:54,B23.00,OTHER INTER/CONFLICT; TIME ELAPSED NOT APPLICABLE; INJURY NOT APPLICABLE,911,5,S503,FALSE,81 CLERK ST;  ,JERSEY CITY,40.70683289,-74.07687378,1,S5HPNTSCZA
16-001029,S,1/1/16 21:39,3,1/1/16 21:41,1/1/16 21:54,B23.00,OTHER INTER/CONFLICT; TIME ELAPSED NOT APPLICABLE; INJURY NOT APPLICABLE,911,5,S303,TRUE,81 CLERK ST;  ,JERSEY CITY,40.70683289,-74.07687378,1,S5HPNTSCZA
16-001030,S,1/1/16 21:48,3,1/1/16 21:49,1/1/16 21:49,T10.00,TRAFFIC STOP; TIME ELAPSED NOT APPLICABLE; INJURY NOT APPLICABLE,MVS,9,S603,TRUE,OCEAN AVE & GRANT AVE;  ,JERSEY CITY,40.70718002,-74.07774353,1,SX
16-001032,W,1/1/16 21:49,3,1/1/16 21:50,1/1/16 21:49,J32.00,PSN - PROJECT SAFE NEIGHBORHOODS; TIME ELAPSED NOT APPLICABLE; INJURY NOT APPLICABLE,SI,9,W503,TRUE,2379 KENNEDY BLVD;  ,JERSEY CITY,40.71927643,-74.07820129,1,S5HPNTSC-A
16-001033,S,1/1/16 21:51,3,1/1/16 21:52,1/1/16 22:02,F23.00,OTHER SUSPICIOUS/HAZARDOUS CIRCUMSTANCES; TIME ELAPSED NOT APPLICABLE; INJURY NOT APPLICABLE,911,4,SSD1/2,TRUE,62 RUTGERS AVE;  ,JERSEY CITY,40.69942856,-74.08917999,1,S5HPNTSCZA
16-001033,S,1/1/16 21:51,3,1/1/16 21:52,1/1/16 22:02,F23.00,OTHER SUSPICIOUS/HAZARDOUS CIRCUMSTANCES; TIME ELAPSED NOT APPLICABLE; INJURY NOT APPLICABLE,911,4,CE2E,FALSE,62 RUTGERS AVE;  ,JERSEY CITY,40.69942856,-74.08917999,1,S5HPNTSCZA
16-001036,W,1/1/16 22:02,3,1/1/16 22:03,1/1/16 22:02,J32.00,PSN - PROJECT SAFE NEIGHBORHOODS; TIME ELAPSED NOT APPLICABLE; INJURY NOT APPLICABLE,SI,9,W603,TRUE,628 BRAMHALL AVE;  ,JERSEY CITY,40.71663666,-74.07728577,1,S5HPNTSCZA
16-001038,W,1/1/16 22:05,3,1/1/16 22:07,1/1/16 22:14,Z33.00,RING BACK; TIME ELAPSED NOT APPLICABLE; INJURY NOT APPLICABLE,911,9,W403,TRUE,308 ARLINGTON AVE; (3 FL),JERSEY CITY,40.71157455,-74.07191467,1,S5HPNTSCZA
16-001039,N,1/1/16 22:05,3,1/1/16 22:07,1/1/16 23:10,D21.00,HYDRANT PARKING VIOLATION; TIME ELAPSED NOT APPLICABLE; INJURY NOT APPLICABLE,PH,7,N403,TRUE,7 PIERCE AVE;  ,JERSEY CITY,40.75093842,-74.05072021,1,S5HPNTSCZA
16-001041,W,1/1/16 22:07,3,1/1/16 22:10,1/1/16 22:14,H13.00,AMBULANCE REQUEST FOR; TIME ELAPSED NOT APPLICABLE; INJURY NOT APPLICABLE,PH,3,W203,TRUE,30 KENSINGTON AVE; 301  ,JERSEY CITY,40.72224045,-74.07328796,1,S5HPNTSCZA
16-001044,N,1/1/16 22:11,3,1/1/16 22:12,1/1/16 22:28,B21.00,MERCHANT/CUSTOMER DISPUTE; TIME ELAPSED NOT APPLICABLE; INJURY NOT APPLICABLE,PH,5,N203,TRUE,807 NEWARK AVE;  ,JERSEY CITY,40.7355423,-74.06529236,1,S5HPNTSCZA
16-001046,N,1/1/16 22:15,3,1/1/16 22:16,1/1/16 22:16,T10.00,TRAFFIC STOP; TIME ELAPSED NOT APPLICABLE; INJURY NOT APPLICABLE,MVS,9,N503,FALSE,MANHATTAN AVE & KENNEDY BLVD;  ,JERSEY CITY,40.74536896,-74.05780029,1,SX
16-001046,N,1/1/16 22:15,3,1/1/16 22:16,1/1/16 22:16,T10.00,TRAFFIC STOP; TIME ELAPSED NOT APPLICABLE; INJURY NOT APPLICABLE,MVS,9,N403,TRUE,MANHATTAN AVE & KENNEDY BLVD;  ,JERSEY CITY,40.74536896,-74.05780029,1,SX
16-001047,E,1/1/16 22:20,3,1/1/16 22:21,1/1/16 22:36,C31.00,BURG ALARM COMMERCIAL PROP; TIME ELAPSED NOT APPLICABLE; INJURY NOT APPLICABLE,PH,4,E403,TRUE,111 RIVER DRIVE S;  ,JERSEY CITY,40.73273087,-74.03220367,2,S3-PNTSC-A
16-001049,E,1/1/16 22:21,3,1/1/16 22:22,1/1/01 0:00,C31.00,BURG ALARM COMMERCIAL PROP; TIME ELAPSED NOT APPLICABLE; INJURY NOT APPLICABLE,PH,4,E603,TRUE,396 MARIN BLVD;  ,JERSEY CITY,40.72306824,-74.04066467,1,S5HPNTSC-A
16-001051,W,1/1/16 22:27,3,1/1/16 22:28,1/1/01 0:00,D21.00,HYDRANT PARKING VIOLATION; TIME ELAPSED NOT APPLICABLE; INJURY NOT APPLICABLE,PH,7,W603,TRUE,FAIRVIEW AVE & KENNEDY BLVD;  ,JERSEY CITY,40.72428131,-74.07408142,2,SX
16-001053,S,1/1/16 22:35,3,1/1/16 22:36,1/1/16 22:35,H35.00,OTHER ASSISTANCE; TIME ELAPSED NOT APPLICABLE; INJURY NOT APPLICABLE,SI,6,S303,TRUE,DANFORTH AVE & OCEAN AVE;  ,JERSEY CITY,40.6955986,-74.09069824,1,SX
16-001054,S,1/1/16 22:37,3,1/1/16 22:39,1/1/16 22:47,E11.00,DISORDERLY CONDUCT; TIME ELAPSED NOT APPLICABLE; INJURY NOT APPLICABLE,PH,7,S403,TRUE,1 GARFIELD AVE;  ,JERSEY CITY,40.68585205,-74.09981537,1,S5HPNTSCZA
16-001055,S,1/1/16 22:37,3,1/1/16 22:39,1/1/16 22:53,C31.00,BURG ALARM COMMERCIAL PROP; TIME ELAPSED NOT APPLICABLE; INJURY NOT APPLICABLE,PH,4,S603,FALSE,100 SUMMIT PL;  ,JERSEY CITY,40.68072128,-74.08869171,1,S2HPNTSCZA
16-001055,S,1/1/16 22:37,3,1/1/16 22:39,1/1/16 22:53,C31.00,BURG ALARM COMMERCIAL PROP; TIME ELAPSED NOT APPLICABLE; INJURY NOT APPLICABLE,PH,4,S203,TRUE,100 SUMMIT PL;  ,JERSEY CITY,40.68072128,-74.08869171,1,S2HPNTSCZA
16-001056,S,1/1/16 22:39,3,1/1/16 22:40,1/1/16 22:40,T10.00,TRAFFIC STOP; TIME ELAPSED NOT APPLICABLE; INJURY NOT APPLICABLE,SI,9,S603,TRUE,GRANT AVE & MARTIN LUTHER KING DR;  ,JERSEY CITY,40.70920944,-74.08097076,1,SX
16-001057,E,1/1/16 22:41,3,1/1/16 22:42,1/1/01 0:00,C31.00,BURG ALARM COMMERCIAL PROP; TIME ELAPSED NOT APPLICABLE; INJURY NOT APPLICABLE,PH,4,E403,TRUE,613 WASHINGTON BLVD;  ,JERSEY CITY,40.72714615,-74.03482056,1,S5HPNTSCZA
16-001060,E,1/1/16 22:56,3,1/1/16 22:58,1/1/16 23:36,D34.00,HANDICAPPED PARKING; TIME ELAPSED NOT APPLICABLE; INJURY NOT APPLICABLE,PH,7,E301,TRUE,236 WHITON ST;  ,JERSEY CITY,40.71004868,-74.06300354,1,S5HPNTSCZA
16-001062,E,1/1/16 22:59,3,1/1/16 23:01,1/1/16 23:10,F16.00,SUSPICIOUS PERSON/CONDITION; TIME ELAPSED NOT APPLICABLE; INJURY NOT APPLICABLE,PH,3,E603,TRUE,GRAND ST & PACIFIC AVE;  ,JERSEY CITY,0,0,0,NOT FOUND
16-001065,E,1/1/16 23:09,1,1/1/16 23:11,1/1/16 23:23,F23.00,OTHER SUSPICIOUS/HAZARDOUS CIRCUMSTANCES; TIME ELAPSED NOT APPLICABLE; INJURY NOT APPLICABLE,911,4,E101,TRUE,150 WOODWARD ST; (1 FL),JERSEY CITY,40.71211624,-74.06570435,1,S5HPNTSCZA
16-001066,W,1/1/16 23:15,1,1/1/16 23:16,1/2/16 0:27,E21.00,OTHER PUBLIC NUISANCE; TIME ELAPSED NOT APPLICABLE; INJURY NOT APPLICABLE,PH,7,W301,FALSE,107 DUNCAN AVE;  ,JERSEY CITY,40.72563171,-74.07444,1,S5HPNTSCZA
16-001066,W,1/1/16 23:15,1,1/1/16 23:16,1/2/16 0:27,E21.00,OTHER PUBLIC NUISANCE; TIME ELAPSED NOT APPLICABLE; INJURY NOT APPLICABLE,PH,7,W201,TRUE,107 DUNCAN AVE;  ,JERSEY CITY,40.72563171,-74.07444,1,S5HPNTSCZA
16-001069,S,1/1/16 23:24,1,1/1/16 23:26,1/1/16 23:32,B23.00,OTHER INTER/CONFLICT; TIME ELAPSED NOT APPLICABLE; INJURY NOT APPLICABLE,911,5,S501,FALSE,30 GARFIELD AVE;  ,JERSEY CITY,40.68848038,-74.09738159,1,S5HPNTSCZA
16-001069,S,1/1/16 23:24,1,1/1/16 23:26,1/1/16 23:32,B23.00,OTHER INTER/CONFLICT; TIME ELAPSED NOT APPLICABLE; INJURY NOT APPLICABLE,911,5,S301,TRUE,30 GARFIELD AVE;  ,JERSEY CITY,40.68848038,-74.09738159,1,S5HPNTSCZA
16-001070,W,1/1/16 23:25,1,1/1/16 23:26,1/1/01 0:00,F18.00,GUNSHOTS FIRED HEARD ( NO WITNESS / VICTIM ); TIME ELAPSED NOT APPLICABLE; INJURY NOT APPLICABLE,PH,2,W301,FALSE,DUNCAN AVE & WEST SIDE AVE;  ,JERSEY CITY,40.72668076,-74.07659149,1,SX
16-001070,W,1/1/16 23:25,1,1/1/16 23:26,1/1/01 0:00,F18.00,GUNSHOTS FIRED HEARD ( NO WITNESS / VICTIM ); TIME ELAPSED NOT APPLICABLE; INJURY NOT APPLICABLE,PH,2,W101,TRUE,DUNCAN AVE & WEST SIDE AVE;  ,JERSEY CITY,40.72668076,-74.07659149,1,SX
16-001073,N,1/1/16 23:34,1,1/1/16 23:35,1/1/16 23:34,J32.00,PSN - PROJECT SAFE NEIGHBORHOODS; TIME ELAPSED NOT APPLICABLE; INJURY NOT APPLICABLE,SI,9,N501,TRUE,356 CENTRAL AVE;  ,JERSEY CITY,40.74693298,-74.04862213,1,S5HPNTSCZA
16-001080,S,1/1/16 23:43,1,1/1/16 23:44,1/1/16 23:43,F16.00,SUSPICIOUS PERSON/CONDITION; TIME ELAPSED NOT APPLICABLE; INJURY NOT APPLICABLE,SI,3,W501,FALSE,KEARNEY AVE & BERGEN AVE;  ,JERSEY CITY,40.71276855,-74.08178711,1,SX
